 [{"city": "Headland", "airport": "Headland Municipal Airport", "state": "Alabama", "lat": 31.36417, "lng": 85.3125, "faa": ["0J6"]},
{"city": "Grand Forks", "airport": "Grand Forks International Airport", "state": "North Dakota", "lat": 47.94917, "lng": 97.17611, "faa": ["GFK", "KGFK", "GFK"]},
{"city": "Hazen", "airport": "Mercer County Regional Airport", "state": "North Dakota", "lat": 47.29, "lng": 101.58111, "faa": ["KHZE", "HZE"]},
{"city": "Gwinner", "airport": "Gwinner-Roger Melroe Field", "state": "North Dakota", "lat": 46.21861, "lng": 97.64361, "faa": ["KGWR", "GWR"]},
{"city": "Garrison", "airport": "Garrison Municipal Airport", "state": "North Dakota", "lat": 47.65583, "lng": 101.43722, "faa": ["D05"]},
{"city": "North Kingstown", "airport": "NAS Quonset Point", "state": "Rhode Island", "lat": 41.59722, "lng": 71.41222, "faa": ["KOQU", "OQU"]},
{"city": "Lawton", "airport": "Lawton\u2013Fort Sill Regional Airport", "state": "Oklahoma", "lat": 34.56778, "lng": 98.41639, "faa": ["LAW", "KLAW", "LAW"]},
{"city": "Eugene", "airport": "Eugene Airport", "state": "Oregon", "lat": 44.12306, "lng": 123.21861, "faa": ["Mahlon Sweet Field", "\n", "EUG", "KEUG", "EUG"]},
{"city": "Allentown", "airport": "Lehigh Valley International Airport", "state": "Pennsylvania", "lat": 40.652333, "lng": 75.440472, "faa": ["ABE", "KABE", "ABE"]},
{"city": "Rapid City", "airport": "Rapid City Regional Airport", "state": "South Dakota", "lat": 44.04528, "lng": 103.05722, "faa": ["RAP", "KRAP", "RAP"]},
{"city": "Pierre", "airport": "Pierre Regional Airport", "state": "South Dakota", "lat": 44.38278, "lng": 100.28611, "faa": ["PIR", "KPIR", "PIR"]},
{"city": "Aberdeen", "airport": "Aberdeen Regional Airport", "state": "South Dakota", "lat": 45.448278, "lng": 98.42275, "faa": ["ABR", "KABR", "ABR"]},
{"city": "Greer", "airport": "Greenville-Spartanburg International Airport", "state": "South Carolina", "lat": 34.89556, "lng": 82.21889, "faa": ["Roger Milliken Field", "GSP", "KGSP", "GSP"]},
{"city": "Big Piney", "airport": "Miley Memorial Field", "state": "Wyoming", "lat": 42.585, "lng": 110.11111, "faa": ["BPI", "KBPI", "BPI"]},
{"city": "Afton", "airport": "Afton Municipal Airport", "state": "Wyoming", "lat": 42.70889, "lng": 110.94222, "faa": ["Afton-Lincoln County Airport", "AFO", "KAFO", "AFO"]},
{"city": "Worland", "airport": "Worland Municipal Airport", "state": "Wyoming", "lat": 43.96278, "lng": 107.95056, "faa": ["WRL", "KWRL", "WRL"]},
{"city": "Sheridan", "airport": "Sheridan County Airport", "state": "Wyoming", "lat": 44.76917, "lng": 106.98028, "faa": ["SHR", "KSHR", "SHR"]},
{"city": "Cheyenne", "airport": "F. E. Warren Air Force Base", "state": "Wyoming", "lat": 41.13306, "lng": 104.86694, "faa": []},
{"city": "McCook", "airport": "McCook Army Airfield", "state": "Nebraska", "lat": 40.30694, "lng": 100.70194, "faa": []},
{"city": "Bruning", "airport": "Bruning Army Airfield", "state": "Nebraska", "lat": 40.34028, "lng": 97.42833, "faa": []},
{"city": "Utica", "airport": "Oneida County Airport", "state": "New York", "lat": 43.145, "lng": 75.38389, "faa": ["UCA", "KUCA", "UCA"]},
{"city": "Scotia", "airport": "Mohawk Valley Airport", "state": "New York", "lat": 42.86806, "lng": 74.02861, "faa": ["31NK"]},
{"city": "Plattsburgh", "airport": "Clinton County Airport", "state": "New York", "lat": 44.6875, "lng": 73.52444, "faa": []},
{"city": "Romulus", "airport": "Seneca Army Airfield", "state": "New York", "lat": 42.72914, "lng": 76.8998806, "faa": []},
{"city": "Peekskill", "airport": "Peekskill Seaplane Base", "state": "New York", "lat": 41.24583, "lng": 73.96222, "faa": ["7N2"]},
{"city": "Olcott", "airport": "Olcott-Newfane Airport", "state": "New York", "lat": 43.32167, "lng": 78.725, "faa": ["D80"]},
{"city": "Rome", "airport": "Griffiss Air Force Base", "state": "New York", "lat": 43.23082083, "lng": 75.4096417, "faa": []},
{"city": "North Amityville", "airport": "Zahn's Airport", "state": "New York", "lat": 40.66667, "lng": 73.41639, "faa": ["AYZ"]},
{"city": "New Dorp", "airport": "Miller Field", "state": "New York", "lat": 40.56417, "lng": 74.09556, "faa": []},
{"city": "Lexington", "airport": "Maben Airport", "state": "New York", "lat": 42.27222, "lng": 74.39417, "faa": ["none", "none", "N00"]},
{"city": "Monticello", "airport": "Monticello Airport", "state": "New York", "lat": 41.6225, "lng": 74.70139, "faa": ["N37"]},
{"city": "Jackson Heights", "airport": "Holmes Airport", "state": "New York", "lat": 40.76278, "lng": 73.89361, "faa": []},
{"city": "Garden City", "airport": "Roosevelt Field", "state": "New York", "lat": 40.74194, "lng": 73.59889, "faa": ["Hazelhurst Field", "Hempstead Plains Aerodrome"]},
{"city": "Flushing", "airport": "Flushing Airport", "state": "New York", "lat": 40.77917, "lng": 73.83333, "faa": ["FLU", "KFLU"]},
{"city": "Cicero", "airport": "Michael Airfield", "state": "New York", "lat": 43.18167, "lng": 76.12778, "faa": ["1G6"]},
{"city": "Angola", "airport": "Angola Airport", "state": "New York", "lat": 42.65783, "lng": 78.99033, "faa": []},
{"city": "Brooklyn", "airport": "Floyd Bennett Field", "state": "New York", "lat": 40.591, "lng": 73.891, "faa": []},
{"city": "Gouverneur", "airport": "Hendricks Field", "state": "New York", "lat": 44.36806, "lng": 75.40333, "faa": ["NK16"]},
{"city": "Chittenango", "airport": "Luther Airport", "state": "New York", "lat": 43.02917, "lng": 75.84556, "faa": ["1D5"]},
{"city": "Calverton", "airport": "Calverton Executive Airpark", "state": "New York", "lat": 40.915, "lng": 72.79194, "faa": ["CTO", "3C8"]},
{"city": "Alexandria Bay", "airport": "Maxson Airfield", "state": "New York", "lat": 44.31667, "lng": 75.89972, "faa": ["89NY (formerly 89N)"]},
{"city": "Fort Drum", "airport": "Wheeler-Sack Army Airfield", "state": "New York", "lat": 44.05556, "lng": 75.71944, "faa": ["KGTB", "GTB"]},
{"city": "Southampton", "airport": "Southampton Heliport", "state": "New York", "lat": 40.846236, "lng": 72.466363, "faa": ["87N"]},
{"city": "Rouses Point", "airport": "Rouses Point Seaplane Base", "state": "New York", "lat": 44.99167, "lng": 73.36333, "faa": ["K21"]},
{"city": "Schuylerville", "airport": "Garnseys Airport", "state": "New York", "lat": 43.06917, "lng": 73.58361, "faa": ["B04"]},
{"city": "Rome", "airport": "Becks Grove Airport", "state": "New York", "lat": 43.25083, "lng": 75.60444, "faa": ["K16"]},
{"city": "Port Washington", "airport": "Sands Point Seaplane Base", "state": "New York", "lat": 40.8375, "lng": 73.71611, "faa": ["7N3"]},
{"city": "Sandusky", "airport": "Griffing Sandusky Airport", "state": "Ohio", "lat": 41.43333, "lng": 82.65222, "faa": []},
{"city": "Cincinnati", "airport": "Cincinnati-Blue Ash Airport", "state": "Ohio", "lat": 39.24667, "lng": 84.38889, "faa": ["KISZ", "ISZ"]},
{"city": "Dayton", "airport": "Wright-Patterson Air Force Base", "state": "Ohio", "lat": 39.82306, "lng": 84.04944, "faa": ["FFO", "KFFO", "FFO"]},
{"city": "Youngstown", "airport": "Lansdowne Airport", "state": "Ohio", "lat": 41.13056, "lng": 80.61972, "faa": ["04G"]},
{"city": "Youngstown", "airport": "Youngstown Elser Metro Airport", "state": "Ohio", "lat": 40.96167, "lng": 80.67722, "faa": []},
{"city": "Moravia", "airport": "Owasco Airport", "state": "New York", "lat": 42.73583, "lng": 76.48583, "faa": ["Y92"]},
{"city": "Mattituck", "airport": "Mattituck Airport", "state": "New York", "lat": 40.9875, "lng": 72.51889, "faa": ["21N"]},
{"city": "Long Lake", "airport": "Long Lake Sagamore Seaplane Base", "state": "New York", "lat": 43.96889, "lng": 74.42889, "faa": ["K03"]},
{"city": "Long Lake", "airport": "Long Lake Helms Seaplane Base", "state": "New York", "lat": 43.975, "lng": 74.42056, "faa": ["NY9"]},
{"city": "Keene", "airport": "Marcy Field", "state": "New York", "lat": 44.22083, "lng": 73.78778, "faa": ["1I1"]},
{"city": "Haverstraw", "airport": "Haverstraw Heliport", "state": "New York", "lat": 41.21083, "lng": 73.96917, "faa": ["H43"]},
{"city": "Great Valley", "airport": "Great Valley Airport", "state": "New York", "lat": 42.205, "lng": 78.64722, "faa": ["N56"]},
{"city": "Gallupville", "airport": "Blue Heron Airport", "state": "New York", "lat": 42.69722, "lng": 74.19944, "faa": ["N25"]},
{"city": "Edinburg", "airport": "Plateau Sky Ranch Airport", "state": "New York", "lat": 43.22556, "lng": 74.115, "faa": ["1F2"]},
{"city": "East Moriches", "airport": "Lufker Airport", "state": "New York", "lat": 40.82472, "lng": 72.75083, "faa": ["49N"]},
{"city": "Dolgeville", "airport": "Dolgeville Airport", "state": "New York", "lat": 43.11667, "lng": 74.74972, "faa": ["1F6"]},
{"city": "Degrasse", "airport": "Moores Airport", "state": "New York", "lat": 44.38778, "lng": 75.06639, "faa": ["1E8"]},
{"city": "Muskogee", "airport": "Hatbox Field", "state": "Oklahoma", "lat": 35.74583, "lng": 95.41278, "faa": ["HAX", "KHAX", "HAX"]},
{"city": "Marietta", "airport": "Love County Airport", "state": "Oklahoma", "lat": 33.95139, "lng": 97.14611, "faa": ["4O2"]},
{"city": "Wattsburg", "airport": "Erie County Airport", "state": "Pennsylvania", "lat": 42.04417, "lng": 79.85361, "faa": ["3G1"]},
{"city": "Warminster", "airport": "NAWC Warminster", "state": "Pennsylvania", "lat": 40.1833333, "lng": 75.0661111, "faa": []},
{"city": "Pittsburgh", "airport": "Greater Pittsburgh International Airport", "state": "Pennsylvania", "lat": 40.49139, "lng": 80.23278, "faa": ["PIT", "KPIT", "PIT", "94823"]},
{"city": "Kutztown", "airport": "Kutztown Airport", "state": "Pennsylvania", "lat": 40.50333, "lng": 75.78694, "faa": ["N31"]},
{"city": "Indian Lake", "airport": "Indian Lake Airport", "state": "Pennsylvania", "lat": 40.05556, "lng": 78.84611, "faa": ["5G2"]},
{"city": "Harrisburg", "airport": "Olmsted Air Force Base", "state": "Pennsylvania", "lat": 40.19361, "lng": 76.76333, "faa": []},
{"city": "Galeton", "airport": "Cherry Springs Airport", "state": "Pennsylvania", "lat": 41.66667, "lng": 77.81639, "faa": ["5G6"]},
{"city": "Wilmington", "airport": "Airborne Airpark", "state": "Ohio", "lat": 39.42806, "lng": 83.79222, "faa": ["ILN", "KILN", "ILN"]},
{"city": "West Lafayette", "airport": "Tri-City Airport", "state": "Ohio", "lat": 40.24778, "lng": 81.73583, "faa": ["80G"]},
{"city": "Troy", "airport": "Troy Skypark", "state": "Ohio", "lat": 39.99083, "lng": 84.27056, "faa": ["37I"]},
{"city": "Toronto", "airport": "Eddie Dew Memorial Airpark", "state": "Ohio", "lat": 40.475889, "lng": 80.628139, "faa": ["1G8"]},
{"city": "St. Marys", "airport": "Grand Lake St. Marys Seaplane Base", "state": "Ohio", "lat": 40.54111, "lng": 84.49056, "faa": ["O12"]},
{"city": "Shelby", "airport": "Shelby Community Airport", "state": "Ohio", "lat": 40.87278, "lng": 82.6975, "faa": ["12G"]},
{"city": "Sebring", "airport": "Tri-City Airport", "state": "Ohio", "lat": 40.90611, "lng": 81.0, "faa": ["3G6"]},
{"city": "Salem", "airport": "Koons Airport", "state": "Ohio", "lat": 40.88278, "lng": 80.88056, "faa": ["8G8"]},
{"city": "Salem", "airport": "Salem Airpark", "state": "Ohio", "lat": 40.94806, "lng": 80.86222, "faa": ["38D"]},
{"city": "Arthur", "airport": "Arthur Municipal Airport", "state": "Nebraska", "lat": 41.56167, "lng": 101.71139, "faa": ["38V"]},
{"city": "Omaha", "airport": "Offutt Air Force Base", "state": "Nebraska", "lat": 41.11944, "lng": 95.90861, "faa": ["OFF", "KOFF", "OFF"]},
{"city": "Trenton", "airport": "Trenton Municipal Airport", "state": "Nebraska", "lat": 40.1875, "lng": 101.02556, "faa": ["9V2"]},
{"city": "South Sioux City", "airport": "Martin Field", "state": "Nebraska", "lat": 42.45417, "lng": 96.4725, "faa": ["7K8"]},
{"city": "Omaha", "airport": "North Omaha Airport", "state": "Nebraska", "lat": 41.36833, "lng": 96.0225, "faa": ["3NO"]},
{"city": "Cooperstown", "airport": "Cooperstown-Westville Airport", "state": "New York", "lat": 42.62917, "lng": 74.89111, "faa": ["COP", "K23"]},
{"city": "Cambridge", "airport": "Chapin Field", "state": "New York", "lat": 43.05278, "lng": 73.36306, "faa": ["1B8"]},
{"city": "Argyle", "airport": "Argyle Airport", "state": "New York", "lat": 43.25444, "lng": 73.47028, "faa": ["1C3"]},
{"city": "Arcade", "airport": "Arcade Tri-County Airport", "state": "New York", "lat": 42.56667, "lng": 78.42611, "faa": ["D23"]},
{"city": "Westhampton Beach", "airport": "Francis S. Gabreski Airport", "state": "New York", "lat": 40.84361, "lng": 72.63167, "faa": ["FOK", "KFOK", "FOK"]},
{"city": "Wellsville", "airport": "Wellsville Municipal Airport", "state": "New York", "lat": 42.10944, "lng": 77.99, "faa": ["ELZ", "KELZ", "ELZ"]},
{"city": "Warwick", "airport": "Warwick Municipal Airport", "state": "New York", "lat": 41.2875, "lng": 74.28722, "faa": ["N72"]},
{"city": "Utica", "airport": "Frankfort-Highland Airport", "state": "New York", "lat": 43.01667, "lng": 75.17083, "faa": ["6B4"]},
{"city": "Ticonderoga", "airport": "Ticonderoga Municipal Airport", "state": "New York", "lat": 43.87639, "lng": 73.41306, "faa": ["4B6"]},
{"city": "Stormville", "airport": "Stormville Airport", "state": "New York", "lat": 41.57694, "lng": 73.73222, "faa": ["N69"]},
{"city": "Skaneateles", "airport": "Skaneateles Aerodrome", "state": "New York", "lat": 42.91389, "lng": 76.44083, "faa": ["6B9"]},
{"city": "Sidney", "airport": "Sidney Municipal Airport", "state": "New York", "lat": 42.3025, "lng": 75.41611, "faa": ["SXY", "N23"]},
{"city": "Schroon Lake", "airport": "Schroon Lake Airport", "state": "New York", "lat": 43.85833, "lng": 73.74083, "faa": ["4B7"]},
{"city": "Saratoga Springs", "airport": "Saratoga County Airport", "state": "New York", "lat": 43.05083, "lng": 73.86167, "faa": ["5B2"]},
{"city": "Rome", "airport": "Griffiss International Airport", "state": "New York", "lat": 43.23389, "lng": 75.40694, "faa": ["RME", "KRME", "RME"]},
{"city": "Red Hook", "airport": "Sky Park Airport", "state": "New York", "lat": 41.98472, "lng": 73.83583, "faa": ["46N"]},
{"city": "Afton", "airport": "Teramiranda Airport", "state": "Oklahoma", "lat": 36.60833, "lng": 94.8725, "faa": ["79F"]},
{"city": "Blackwell", "airport": "Earl Henry Airport", "state": "Oklahoma", "lat": 36.79583, "lng": 97.31694, "faa": ["BWL", "6OK6"]},
{"city": "Oklahoma City", "airport": "Tinker Air Force Base", "state": "Oklahoma", "lat": 35.41472, "lng": 97.38667, "faa": ["TIK", "KTIK", "TIK"]},
{"city": "Fort Sill", "airport": "Henry Post Army Airfield", "state": "Oklahoma", "lat": 34.64972, "lng": 98.40222, "faa": ["FSI", "KFSI", "FSI"]},
{"city": "Enid", "airport": "Vance Air Force Base", "state": "Oklahoma", "lat": 36.33944, "lng": 97.91722, "faa": ["END", "KEND", "END"]},
{"city": "Cherokee", "airport": "Kegelman Air Force Auxiliary Field", "state": "Oklahoma", "lat": 36.73806, "lng": 98.12611, "faa": ["CKA", "KCKA", "CKA"]},
{"city": "Westport", "airport": "Westport Airport", "state": "Oklahoma", "lat": 36.22139, "lng": 96.34639, "faa": ["4F1"]},
{"city": "Altus", "airport": "Altus Air Force Base", "state": "Oklahoma", "lat": 34.66639, "lng": 99.26806, "faa": ["LTS", "KLTS", "LTS"]},
{"city": "Texhoma", "airport": "Municipal Airport", "state": "Oklahoma", "lat": 36.50472, "lng": 101.81222, "faa": ["Texhoma Municipal Airport", "K49"]},
{"city": "Stilwell", "airport": "Stilwell/Cherokee Nation Airport", "state": "Oklahoma", "lat": 35.75694, "lng": 94.64972, "faa": ["O11"]},
{"city": "Freeport", "airport": "McVille Airport", "state": "Pennsylvania", "lat": 40.73333, "lng": 79.59972, "faa": ["P37"]},
{"city": "Oklahoma City", "airport": "Sundance Airpark", "state": "Oklahoma", "lat": 35.60194, "lng": 97.70611, "faa": ["KHSD", "HSD"]},
{"city": "Breinigsville", "airport": "Gardner Airport", "state": "Pennsylvania", "lat": 40.55667, "lng": 75.64333, "faa": ["29PA"]},
{"city": "Annville", "airport": "Millard Airport", "state": "Pennsylvania", "lat": 40.31722, "lng": 76.53639, "faa": ["N76"]},
{"city": "Willow Grove", "airport": "NAS JRB Willow Grove", "state": "Pennsylvania", "lat": 40.1998, "lng": 75.1482, "faa": ["NXX", "KNXX", "NXX"]},
{"city": "York", "airport": "York Airport", "state": "Pennsylvania", "lat": 39.91694, "lng": 76.87306, "faa": ["THV", "KTHV", "THV"]},
{"city": "Fort Indiantown Gap", "airport": "Muir Army Airfield", "state": "Pennsylvania", "lat": 40.43472, "lng": 76.56917, "faa": ["MUI", "KMUI", "MUI"]},
{"city": "Waynesburg", "airport": "Greene County Airport", "state": "Pennsylvania", "lat": 39.90111, "lng": 80.13056, "faa": ["WAY", "KWAY", "WAY"]},
{"city": "Tunkhannock", "airport": "Skyhaven Airport", "state": "Pennsylvania", "lat": 41.52917, "lng": 75.94694, "faa": ["76N"]},
{"city": "Unionville", "airport": "Ridge Soaring Gliderport", "state": "Pennsylvania", "lat": 40.88389, "lng": 77.90722, "faa": ["79N"]},
{"city": "Tower City", "airport": "Bendigo Airport", "state": "Pennsylvania", "lat": 40.55861, "lng": 76.55944, "faa": ["none", "none", "74N"]},
{"city": "Smoketown", "airport": "Smoketown Airport", "state": "Pennsylvania", "lat": 40.04111, "lng": 76.20139, "faa": ["S37"]},
{"city": "McConnelsville", "airport": "Morgan County Airport", "state": "Ohio", "lat": 39.65417, "lng": 81.80306, "faa": ["I71"]},
{"city": "Hiram", "airport": "Far View Airport", "state": "Ohio", "lat": 41.29583, "lng": 81.15806, "faa": ["OI41"]},
{"city": "Green Springs", "airport": "Weiker Airport", "state": "Ohio", "lat": 41.22917, "lng": 83.02917, "faa": ["82D"]},
{"city": "Garrettsville", "airport": "Gates Airport", "state": "Ohio", "lat": 41.35111, "lng": 81.09944, "faa": ["7D8"]},
{"city": "Fremont", "airport": "Fremont Airport", "state": "Ohio", "lat": 41.33306, "lng": 83.16111, "faa": ["14G"]},
{"city": "Dayton", "airport": "Dahio Trotwood Airport", "state": "Ohio", "lat": 39.76583, "lng": 84.34333, "faa": ["Dayton-New Lebanon Airport", "none", "none", "I44"]},
{"city": "Dayton", "airport": "Moraine Airpark", "state": "Ohio", "lat": 39.6825, "lng": 84.24306, "faa": ["none", "none", "I73"]},
{"city": "Roanoke Rapids", "airport": "Halifax County Airport", "state": "North Carolina", "lat": 36.43944, "lng": 77.70944, "faa": ["RZZ", "KRZZ", "RZZ"]},
{"city": "Mocksville", "airport": "Sugar Valley Airport", "state": "North Carolina", "lat": 35.985, "lng": 80.51139, "faa": ["31A"]},
{"city": "Huntersville", "airport": "Bradford Field", "state": "North Carolina", "lat": 35.40889, "lng": 80.79417, "faa": ["none", "none", "NC05"]},
{"city": "Corolla", "airport": "Pine Island Airport", "state": "North Carolina", "lat": 36.25333, "lng": 75.78861, "faa": ["DUF"]},
{"city": "Clarkton", "airport": "Elkins Field", "state": "North Carolina", "lat": 34.45778, "lng": 78.61833, "faa": ["1E6"]},
{"city": "Brevard", "airport": "Transylvania County Airport", "state": "North Carolina", "lat": 35.27028, "lng": 82.64417, "faa": ["3NR3"]},
{"city": "Swansboro", "airport": "MCALF Bogue", "state": "North Carolina", "lat": 34.69056, "lng": 77.02972, "faa": ["KNJM", "NJM"]},
{"city": "Jacksonville", "airport": "MCAS New River", "state": "North Carolina", "lat": 34.70722, "lng": 77.44528, "faa": ["McCutcheon Field", "KNCA", "NCA"]},
{"city": "Holly Ridge", "airport": "MCOLF Camp Davis", "state": "North Carolina", "lat": 34.51667, "lng": 77.55, "faa": ["14NC"]},
{"city": "Goldsboro", "airport": "Seymour Johnson Air Force Base", "state": "North Carolina", "lat": 35.33944, "lng": 77.96056, "faa": ["GSB", "KGSB", "GSB"]},
{"city": "Fort Bragg", "airport": "Simmons Army Airfield", "state": "North Carolina", "lat": 35.13194, "lng": 78.93639, "faa": ["FBG", "KFBG", "FBG"]},
{"city": "Fayetteville", "airport": "Pope Air Force Base", "state": "North Carolina", "lat": 35.17083, "lng": 79.01444, "faa": ["POB", "KPOB", "POB"]},
{"city": "Camp Mackall", "airport": "Mackall Army Airfield", "state": "North Carolina", "lat": 35.03639, "lng": 79.4975, "faa": ["HFF", "KHFF", "HFF"]},
{"city": "Cherry Point", "airport": "MCAS Cherry Point", "state": "North Carolina", "lat": 34.90083, "lng": 76.88083, "faa": ["Cunningham Field", "KNKT", "NKT"]},
{"city": "Bloomfield", "airport": "Bloomfield Municipal Airport", "state": "Nebraska", "lat": 42.57972, "lng": 97.67361, "faa": ["84Y"]},
{"city": "Arapahoe", "airport": "Arapahoe Municipal Airport", "state": "Nebraska", "lat": 40.33944, "lng": 99.90639, "faa": ["AHF", "none", "37V"]},
{"city": "Alma", "airport": "Harlan County Lake Seaplane Base", "state": "Nebraska", "lat": 40.04306, "lng": 99.25083, "faa": ["H63"]},
{"city": "York", "airport": "York Municipal Airport", "state": "Nebraska", "lat": 40.89639, "lng": 97.62417, "faa": ["KJYR", "JYR"]},
{"city": "Valentine", "airport": "Miller Field", "state": "Nebraska", "lat": 42.85667, "lng": 100.54889, "faa": ["VTN", "KVTN", "VTN"]},
{"city": "Wahoo", "airport": "Wahoo Municipal Airport", "state": "Nebraska", "lat": 41.24056, "lng": 96.59444, "faa": ["KAHQ", "AHQ"]},
{"city": "Sidney", "airport": "Sidney Municipal Airport", "state": "Nebraska", "lat": 41.09972, "lng": 102.985, "faa": ["Lloyd W. Carr Field", "SNY", "KSNY", "SNY"]},
{"city": "Scribner", "airport": "Scribner State Airport", "state": "Nebraska", "lat": 41.61028, "lng": 96.63, "faa": ["SCB", "KSCB", "SCB"]},
{"city": "Las Vegas", "airport": "Anderson Field", "state": "Nevada", "lat": 36.142, "lng": 115.149, "faa": []},
{"city": "Goldfield", "airport": "Goldfield Airport", "state": "Nevada", "lat": 37.7225, "lng": 117.23639, "faa": ["\u00d8L5"]},
{"city": "Boulder City", "airport": "Boulder City Airport", "state": "Nevada", "lat": 35.9704, "lng": 114.8494, "faa": []},
{"city": "Amargosa Valley", "airport": "Jackass Aeropark", "state": "Nevada", "lat": 36.63444, "lng": 116.41333, "faa": ["U75"]},
{"city": "Alamo", "airport": "Delamar Lake Landing Strip", "state": "Nevada", "lat": 37.3205194, "lng": 114.9486194, "faa": []},
{"city": "Round Mountain", "airport": "Hadley Airport", "state": "Nevada", "lat": 38.69417, "lng": 117.14667, "faa": ["A36"]},
{"city": "Pahrump", "airport": "Calvada Meadows Airport", "state": "Nevada", "lat": 36.27111, "lng": 115.995, "faa": ["NV74"]},
{"city": "Poughkeepsie", "airport": "Dutchess County Airport", "state": "New York", "lat": 41.62667, "lng": 73.88417, "faa": ["POU", "KPOU", "POU"]},
{"city": "Potsdam", "airport": "Potsdam Municipal Airport", "state": "New York", "lat": 44.67667, "lng": 74.94833, "faa": ["KPTD", "PTD"]},
{"city": "Piseco", "airport": "Piseco Airport", "state": "New York", "lat": 43.45333, "lng": 74.51472, "faa": ["K09"]},
{"city": "Perry", "airport": "Perry-Warsaw Airport", "state": "New York", "lat": 42.74139, "lng": 78.05222, "faa": ["01G"]},
{"city": "Penn Yan", "airport": "Penn Yan Airport", "state": "New York", "lat": 42.63722, "lng": 77.05278, "faa": ["Penn Yan - Yates County Airport", "KPEO", "PEO"]},
{"city": "Oneonta", "airport": "Oneonta Municipal Airport", "state": "New York", "lat": 42.52472, "lng": 75.06444, "faa": ["ONH", "N66"]},
{"city": "Olean", "airport": "Cattaraugus County-Olean Airport", "state": "New York", "lat": 42.24111, "lng": 78.37139, "faa": ["OLE", "KOLE", "OLE"]},
{"city": "Norwich", "airport": "Lt. Warren Eaton Airport", "state": "New York", "lat": 42.56639, "lng": 75.52417, "faa": ["OIC", "KOIC", "OIC"]},
{"city": "New York", "airport": "West 30th Street Heliport", "state": "New York", "lat": 40.754626, "lng": 74.006808, "faa": ["JRA", "KJRA", "JRA"]},
{"city": "New York", "airport": "New York Skyports Inc. Seaplane Base", "state": "New York", "lat": 40.73389, "lng": 73.97278, "faa": ["QNY", "6N7"]},
{"city": "New York", "airport": "East 34th Street Heliport", "state": "New York", "lat": 40.7425, "lng": 73.97194, "faa": ["TSS", "6N5"]},
{"city": "New York", "airport": "Downtown Manhattan Heliport", "state": "New York", "lat": 40.701116, "lng": 74.008801, "faa": ["JRB", "KJRB", "JRB"]},
{"city": "Monticello", "airport": "Sullivan County International Airport", "state": "New York", "lat": 41.70167, "lng": 74.795, "faa": ["MSV", "KMSV", "MSV"]},
{"city": "Montgomery", "airport": "Orange County Airport", "state": "New York", "lat": 41.51, "lng": 74.26472, "faa": ["MGJ", "KMGJ", "MGJ"]},
{"city": "Lockport", "airport": "North Buffalo Suburban Airport", "state": "New York", "lat": 43.10306, "lng": 78.70361, "faa": ["0G0"]},
{"city": "Malone", "airport": "Malone-Dufort Airport", "state": "New York", "lat": 44.85361, "lng": 74.32889, "faa": ["KMAL", "MAL"]},
{"city": "Lake Placid", "airport": "Lake Placid Airport", "state": "New York", "lat": 44.26444, "lng": 73.96194, "faa": ["LKP", "KLKP", "LKP"]},
{"city": "Johnstown", "airport": "Fulton County Airport", "state": "New York", "lat": 42.99833, "lng": 74.32944, "faa": ["NY0"]},
{"city": "Hudson", "airport": "Columbia County Airport", "state": "New York", "lat": 42.29139, "lng": 73.71028, "faa": ["HCC", "1B1"]},
{"city": "Hornell", "airport": "Hornell Municipal Airport", "state": "New York", "lat": 42.38222, "lng": 77.68222, "faa": ["KHTF", "HTF"]},
{"city": "Hamilton", "airport": "Hamilton Municipal Airport", "state": "New York", "lat": 42.84333, "lng": 75.56111, "faa": ["KVGC", "VGC"]},
{"city": "Granville", "airport": "Granville Airport", "state": "New York", "lat": 43.42278, "lng": 73.26806, "faa": ["B01"]},
{"city": "Gasport", "airport": "Royalton Airport", "state": "New York", "lat": 43.68194, "lng": 78.55778, "faa": ["9G5", "9G5"]},
{"city": "Glens Falls", "airport": "Floyd Bennett Memorial Airport", "state": "New York", "lat": 43.34111, "lng": 73.61028, "faa": ["GFL", "KGFL", "GFL"]},
{"city": "Fulton", "airport": "Oswego County Airport", "state": "New York", "lat": 43.35083, "lng": 76.38806, "faa": ["KFZY", "FZY"]},
{"city": "Albuquerque", "airport": "West Mesa Airport", "state": "New Mexico", "lat": 35.08694, "lng": 106.71556, "faa": []},
{"city": "Albuquerque", "airport": "Oxnard Field", "state": "New Mexico", "lat": 35.0507, "lng": 106.5541, "faa": []},
{"city": "Alamo", "airport": "Alamo Navajo Airport", "state": "New Mexico", "lat": 34.36278, "lng": 107.49556, "faa": ["3N9"]},
{"city": "Truth or Consequences", "airport": "Spaceport America", "state": "New Mexico", "lat": 32.99028, "lng": 106.96972, "faa": ["90NM"]},
{"city": "Columbus", "airport": "Columbus Municipal Airport", "state": "New Mexico", "lat": 31.825, "lng": 107.63222, "faa": ["CUS", "0NM0"]},
{"city": "White Sands", "airport": "White Sands Space Harbor", "state": "New Mexico", "lat": 32.9432417, "lng": 106.4195306, "faa": []},
{"city": "Alamogordo", "airport": "Holloman Air Force Base", "state": "New Mexico", "lat": 32.8525, "lng": 106.10639, "faa": ["HMN", "KHMN", "HMN"]},
{"city": "Clovis", "airport": "Cannon Air Force Base", "state": "New Mexico", "lat": 34.38278, "lng": 103.32222, "faa": ["CVS", "KCVS", "CVS"]},
{"city": "Tatum", "airport": "Tatum Airport", "state": "New Mexico", "lat": 33.26083, "lng": 103.27861, "faa": ["18T"]},
{"city": "Silver City", "airport": "Whiskey Creek Airport", "state": "New Mexico", "lat": 32.76194, "lng": 108.20833, "faa": ["94E"]},
{"city": "Nowata", "airport": "Nowata Municipal Airport", "state": "Oklahoma", "lat": 36.72083, "lng": 95.62528, "faa": ["H66"]},
{"city": "Marietta", "airport": "McGehee Catfish Restaurant Airport", "state": "Oklahoma", "lat": 33.89889, "lng": 97.17056, "faa": ["T40"]},
{"city": "Lexington", "airport": "McCaslin Airport", "state": "Oklahoma", "lat": 35.09222, "lng": 97.33639, "faa": ["O44"]},
{"city": "Claremore", "airport": "Sam Riggs Airpark", "state": "Oklahoma", "lat": 36.21806, "lng": 95.65194, "faa": ["K11"]},
{"city": "Burneyville", "airport": "Falconhead Airport", "state": "Oklahoma", "lat": 33.92611, "lng": 97.29639, "faa": ["37K"]},
{"city": "Afton", "airport": "Cherokee Seaplane Base", "state": "Oklahoma", "lat": 36.58333, "lng": 94.91694, "faa": ["4O6"]},
{"city": "Afton", "airport": "Grand Lake Regional Airport", "state": "Oklahoma", "lat": 36.5775, "lng": 94.86194, "faa": ["3O9"]},
{"city": "Woodward", "airport": "West Woodward Airport", "state": "Oklahoma", "lat": 36.43806, "lng": 99.52278, "faa": ["WWR", "KWWR", "WWR"]},
{"city": "Portland", "airport": "Swan Island Airport", "state": "Oregon", "lat": 45.56167, "lng": 122.71472, "faa": []},
{"city": "Florence", "airport": "Siltcoos Lake Seaplane Base", "state": "Oregon", "lat": 43.86639, "lng": 124.08444, "faa": ["5J2"]},
{"city": "Beaverton", "airport": "Bernard's Airport", "state": "Oregon", "lat": 45.496925, "lng": 122.8104528, "faa": []},
{"city": "Warrenton", "airport": "Camp Rilea Heliport", "state": "Oregon", "lat": 46.1164944, "lng": 123.9315333, "faa": ["15OR"]},
{"city": "Salem", "airport": "McNary ARNG Field Heliport", "state": "Oregon", "lat": 44.91, "lng": 123.0025, "faa": ["4OR1"]},
{"city": "North Bend", "airport": "CGAS North Bend", "state": "Oregon", "lat": 43.40917, "lng": 124.24, "faa": []},
{"city": "Astoria", "airport": "CGAS Astoria", "state": "Oregon", "lat": 46.1553, "lng": 123.885, "faa": []},
{"city": "Waldport", "airport": "Wakonda Beach State Airport", "state": "Oregon", "lat": 44.384563889, "lng": 124.0851194, "faa": ["FAA: R33"]},
{"city": "Vernonia", "airport": "Vernonia Municipal Airport", "state": "Oregon", "lat": 45.85139, "lng": 123.24139, "faa": ["05S"]},
{"city": "Vale", "airport": "Miller Memorial Airpark", "state": "Oregon", "lat": 43.963771667, "lng": 117.2593417, "faa": ["S49"]},
{"city": "Toledo", "airport": "Toledo State Airport", "state": "Oregon", "lat": 44.600951667, "lng": 123.9395583, "faa": ["5S4"]},
{"city": "Sisters", "airport": "Sisters Eagle Air Airport", "state": "Oregon", "lat": 44.30456, "lng": 121.5392111, "faa": ["FAA: 6K5"]},
{"city": "Silver Lake", "airport": "Silver Lake Forest Service Strip", "state": "Oregon", "lat": 43.1109725, "lng": 121.0941667, "faa": ["45S"]},
{"city": "Santiam Junction", "airport": "Santiam Junction State Airport", "state": "Oregon", "lat": 44.434555556, "lng": 121.9422778, "faa": ["8S3"]},
{"city": "Sandy", "airport": "Sandy River Airport", "state": "Oregon", "lat": 45.401786944, "lng": 122.2286972, "faa": ["FAA: 03S"]},
{"city": "Sandy", "airport": "Country Squire Airpark", "state": "Oregon", "lat": 45.354444444, "lng": 122.2680556, "faa": ["- FAA: S48"]},
{"city": "Philipsburg", "airport": "Albert Airport", "state": "Pennsylvania", "lat": 49.97, "lng": 2.6925, "faa": ["BYF", "LFAQ"]},
{"city": "Pittsburgh", "airport": "Rock Airport", "state": "Pennsylvania", "lat": 40.60361, "lng": 79.82611, "faa": ["9G1"]},
{"city": "Perkasie", "airport": "Pennridge Airport", "state": "Pennsylvania", "lat": 40.38917, "lng": 75.29056, "faa": ["KCKZ", "CKZ"]},
{"city": "Palmyra", "airport": "Reigle Field", "state": "Pennsylvania", "lat": 40.28667, "lng": 76.57694, "faa": ["58N"]},
{"city": "Myerstown", "airport": "Deck Airport", "state": "Pennsylvania", "lat": 40.3521278, "lng": 76.3296444, "faa": ["9D4"]},
{"city": "Mount Pleasant", "airport": "Mount Pleasant/Scottdale Airport", "state": "Pennsylvania", "lat": 40.10833, "lng": 79.54139, "faa": ["P45"]},
{"city": "Montrose", "airport": "Husky Haven Airport", "state": "Pennsylvania", "lat": 41.78889, "lng": 75.89, "faa": ["P32"]},
{"city": "Monroeville", "airport": "Pittsburgh-Monroeville Airport", "state": "Pennsylvania", "lat": 40.45222, "lng": 79.77472, "faa": ["Harold W. Brown Memorial Airfield", "4G0"]},
{"city": "Mars", "airport": "Lakehill Airport", "state": "Pennsylvania", "lat": 40.70694, "lng": 80.03028, "faa": ["P09"]},
{"city": "Lebanon", "airport": "Keller Brothers Airport", "state": "Pennsylvania", "lat": 40.291528, "lng": 76.32875, "faa": ["08N"]},
{"city": "Jeannette", "airport": "Greensburg Jeannette Regional Airport", "state": "Pennsylvania", "lat": 40.37639, "lng": 79.60889, "faa": ["5G8"]},
{"city": "Honesdale", "airport": "Cherry Ridge Airport", "state": "Pennsylvania", "lat": 41.51556, "lng": 75.25167, "faa": ["N30"]},
{"city": "Columbus", "airport": "Columbus Southwest Airport", "state": "Ohio", "lat": 39.91111, "lng": 83.18889, "faa": ["04I"]},
{"city": "Columbia Station", "airport": "Columbia Airport", "state": "Ohio", "lat": 41.31889, "lng": 81.96028, "faa": ["4G8"]},
{"city": "Centerburg", "airport": "Chapman Memorial Field", "state": "Ohio", "lat": 40.29556, "lng": 82.73, "faa": ["6CM"]},
{"city": "Alliance", "airport": "Miller Airport", "state": "Ohio", "lat": 40.98167, "lng": 81.042139, "faa": ["4G3"]},
{"city": "Ada", "airport": "Ada Airport", "state": "Ohio", "lat": 40.79056, "lng": 83.82917, "faa": ["0D7"]},
{"city": "Wooster", "airport": "Wayne County Airport", "state": "Ohio", "lat": 40.87472, "lng": 81.88833, "faa": ["BJJ", "KBJJ", "BJJ"]},
{"city": "Woodsfield", "airport": "Monroe County Airport", "state": "Ohio", "lat": 39.77917, "lng": 81.10278, "faa": ["4G5"]},
{"city": "Potters Hill", "airport": "Eagles Nest Airport", "state": "North Carolina", "lat": 34.98111, "lng": 77.69972, "faa": ["6N9"]},
{"city": "Pink Hill", "airport": "Pink Hill Airport", "state": "North Carolina", "lat": 35.05083, "lng": 77.73611, "faa": ["4W9"]},
{"city": "Zanesville", "airport": "Zanesville Municipal Airport", "state": "Ohio", "lat": 39.94444, "lng": 81.89222, "faa": ["ZZV", "KZZV", "ZZV"]},
{"city": "Mocksville", "airport": "Twin Lakes Airport", "state": "North Carolina", "lat": 35.915, "lng": 80.45694, "faa": ["8A7"]},
{"city": "Marion", "airport": "Shiflet Field", "state": "North Carolina", "lat": 35.72056, "lng": 82.00972, "faa": ["9A9"]},
{"city": "Jacksonville", "airport": "Sky Manor Airport", "state": "North Carolina", "lat": 34.71694, "lng": 77.59222, "faa": ["N22"]},
{"city": "Green River", "airport": "Greater Green River Intergalactic Spaceport", "state": "Wyoming", "lat": 41.45806, "lng": 109.49, "faa": ["Green River Spaceport", "48U"]},
{"city": "O'Neill", "airport": "The O'Neill Municipal Airport", "state": "Nebraska", "lat": 42.46944, "lng": 98.68722, "faa": ["John L. Baker Field", "ONL", "KONL", "ONL"]},
{"city": "Norfolk", "airport": "Norfolk Regional Airport", "state": "Nebraska", "lat": 41.98556, "lng": 97.435, "faa": ["OFK", "KOFK", "OFK"]},
{"city": "Nebraska City", "airport": "Nebraska City Municipal Airport", "state": "Nebraska", "lat": 40.60556, "lng": 95.86778, "faa": ["KAFK", "AFK"]},
{"city": "Lexington", "airport": "Jim Kelly Field", "state": "Nebraska", "lat": 40.79056, "lng": 99.77583, "faa": ["LXN", "KLXN", "LXN"]},
{"city": "Hyannis", "airport": "Grant County Airport", "state": "Nebraska", "lat": 42.00944, "lng": 101.76944, "faa": ["1V2"]},
{"city": "Hastings", "airport": "Hastings Municipal Airport", "state": "Nebraska", "lat": 40.60528, "lng": 98.42778, "faa": ["HSI", "KHSI", "HSI"]},
{"city": "Harvard", "airport": "Harvard State Airport", "state": "Nebraska", "lat": 40.65139, "lng": 98.07972, "faa": ["08K"]},
{"city": "Grant", "airport": "Grant Municipal Airport", "state": "Nebraska", "lat": 40.87056, "lng": 101.73389, "faa": ["KGGF", "GGF"]},
{"city": "Fremont", "airport": "Fremont Municipal Airport", "state": "Nebraska", "lat": 41.44917, "lng": 96.52028, "faa": ["FET", "KFET", "FET"]},
{"city": "Falls City", "airport": "Brenner Field", "state": "Nebraska", "lat": 40.07861, "lng": 95.59194, "faa": ["KFNB", "FNB"]},
{"city": "Fairmont", "airport": "Fairmont State Airfield", "state": "Nebraska", "lat": 40.58611, "lng": 97.57306, "faa": ["KFMZ", "FMZ"]},
{"city": "Las Vegas", "airport": "Ivanpah Valley Airport", "state": "Nevada", "lat": 35.6889306, "lng": 115.3597944, "faa": []},
{"city": "Mercury", "airport": "Yucca Airstrip", "state": "Nevada", "lat": 36.94583, "lng": 116.03778, "faa": ["UCC", "KUCC", "NV11"]},
{"city": "Tonopah", "airport": "Tonopah Test Range Airport", "state": "Nevada", "lat": 37.79472, "lng": 116.77861, "faa": ["XSD", "KTNX", "TNX"]},
{"city": "Area 51", "airport": "Homey Airport", "state": "Nevada", "lat": 37.235, "lng": 115.81111, "faa": ["KXTA"]},
{"city": "Mercury", "airport": "Pahute Mesa Airstrip", "state": "Nevada", "lat": 37.10278, "lng": 116.31333, "faa": ["L23"]},
{"city": "Mercury", "airport": "Desert Rock Airport", "state": "Nevada", "lat": 36.61944, "lng": 116.03278, "faa": ["DRA", "KDRA", "NV65"]},
{"city": "Las Vegas", "airport": "Nellis Air Force Base", "state": "Nevada", "lat": 36.24917, "lng": 114.99611, "faa": ["LSV", "KLSV", "LSV"]},
{"city": "Fallon", "airport": "NAS Fallon", "state": "Nevada", "lat": 39.425, "lng": 118.70278, "faa": ["Van Voorhis Field", "NFL", "KNFL", "NFL"]},
{"city": "Indian Springs", "airport": "Creech Air Force Base", "state": "Nevada", "lat": 36.58944, "lng": 115.67972, "faa": ["INS", "KINS", "INS"]},
{"city": "Smith", "airport": "Rosaschi Air Park", "state": "Nevada", "lat": 38.83944, "lng": 119.33833, "faa": ["N59"]},
{"city": "Searchlight", "airport": "Searchlight Airport", "state": "Nevada", "lat": 35.44444, "lng": 114.90944, "faa": ["1L3"]},
{"city": "Sandy Valley", "airport": "Sky Ranch Airport", "state": "Nevada", "lat": 35.79306, "lng": 115.62639, "faa": ["3L2"]},
{"city": "Reno", "airport": "Spanish Springs Airport", "state": "Nevada", "lat": 39.66639, "lng": 119.72333, "faa": ["N86"]},
{"city": "Overton", "airport": "Echo Bay Airport", "state": "Nevada", "lat": 36.31111, "lng": 114.46389, "faa": ["\u00d8L9"]},
{"city": "Kingston", "airport": "Kingston Airport", "state": "Nevada", "lat": 39.20306, "lng": 117.06444, "faa": ["N15"]},
{"city": "Mina", "airport": "Mina Airport", "state": "Nevada", "lat": 38.37972, "lng": 118.09639, "faa": ["3Q\u00d8"]},
{"city": "Goldfield", "airport": "Lida Junction Airport", "state": "Nevada", "lat": 37.49194, "lng": 117.18833, "faa": ["0L4"]},
{"city": "Fernley", "airport": "Tiger Field", "state": "Nevada", "lat": 39.55972, "lng": 119.24139, "faa": ["N58"]},
{"city": "Empire", "airport": "Empire Airport", "state": "Nevada", "lat": 40.57861, "lng": 119.35139, "faa": ["1A8"]},
{"city": "Dyer", "airport": "Dyer Airport", "state": "Nevada", "lat": 37.60972, "lng": 118.00639, "faa": ["2Q9"]},
{"city": "Freehold", "airport": "Freehold Airport", "state": "New York", "lat": 42.36389, "lng": 74.065, "faa": ["1I5"]},
{"city": "Fishers Island", "airport": "Elizabeth Field", "state": "New York", "lat": 41.25139, "lng": 72.03167, "faa": ["FID", "0B8"]},
{"city": "Endicott", "airport": "Tri-Cities Airport", "state": "New York", "lat": 42.07861, "lng": 76.09639, "faa": ["KCZG", "CZG"]},
{"city": "Ellenville", "airport": "Joseph Y. Resnick Airport", "state": "New York", "lat": 41.72778, "lng": 74.37722, "faa": ["N89"]},
{"city": "East Hampton", "airport": "East Hampton Airport", "state": "New York", "lat": 40.95944, "lng": 72.25167, "faa": ["HTO", "KHTO", "HTO"]},
{"city": "Dunkirk", "airport": "Chautauqua County/Dunkirk Airport", "state": "New York", "lat": 42.49333, "lng": 79.27194, "faa": ["DKK", "KDKK", "DKK"]},
{"city": "Duanesburg", "airport": "Duanesburg Airport", "state": "New York", "lat": 42.76, "lng": 74.13472, "faa": ["4B1"]},
{"city": "Dansville", "airport": "Dansville Municipal Airport", "state": "New York", "lat": 42.57083, "lng": 77.71306, "faa": ["DSV", "KDSV", "DSV"]},
{"city": "Cortland", "airport": "Cortland County Airport", "state": "New York", "lat": 42.5925, "lng": 76.21472, "faa": ["N03"]},
{"city": "Corning", "airport": "Corning-Painted Post Airport", "state": "New York", "lat": 42.18, "lng": 77.12167, "faa": ["7N1"]},
{"city": "Wurtsboro", "airport": "Wurtsboro-Sullivan County Airport", "state": "New York", "lat": 41.59722, "lng": 74.45833, "faa": ["N82"]},
{"city": "Bayport", "airport": "Bayport Aerodrome", "state": "New York", "lat": 40.758417, "lng": 73.053722, "faa": ["23N"]},
{"city": "Williamson", "airport": "Williamson-Sodus Airport", "state": "New York", "lat": 43.23472, "lng": 77.11944, "faa": ["KSDC", "SDC"]},
{"city": "Weedsport", "airport": "Whitford's Airport", "state": "New York", "lat": 43.080275, "lng": 76.538375, "faa": ["B16"]},
{"city": "Wallkill", "airport": "Kobelt Airport", "state": "New York", "lat": 41.62778, "lng": 74.13389, "faa": ["N45"]},
{"city": "Syracuse", "airport": "Syracuse Suburban Airport", "state": "New York", "lat": 43.26722, "lng": 76.17944, "faa": ["6NK"]},
{"city": "Shirley", "airport": "Brookhaven Airport", "state": "New York", "lat": 40.82194, "lng": 72.86694, "faa": ["WSH", "KHWV", "HWV"]},
{"city": "Schenectady", "airport": "Schenectady County Airport", "state": "New York", "lat": 42.8525, "lng": 73.92889, "faa": ["SCH", "KSCH", "SCH"]},
{"city": "Montauk", "airport": "Montauk Airport", "state": "New York", "lat": 41.07667, "lng": 71.92056, "faa": ["MTP", "KMTP", "MTP"]},
{"city": "Millbrook", "airport": "Sky Acres Airport", "state": "New York", "lat": 41.7075, "lng": 73.73806, "faa": ["44N"]},
{"city": "Middletown", "airport": "Randall Airport", "state": "New York", "lat": 41.4319111, "lng": 74.3915611, "faa": ["06N"]},
{"city": "Le Roy", "airport": "Le Roy Airport", "state": "New York", "lat": 42.98139, "lng": 77.9375, "faa": ["5G0"]},
{"city": "Pennington", "airport": "Twin Pine Airport", "state": "New Jersey", "lat": 40.30972, "lng": 74.75972, "faa": ["N75"]},
{"city": "Bridgeton", "airport": "Li Calzi Airport", "state": "New Jersey", "lat": 39.40833, "lng": 75.23722, "faa": ["N50"]},
{"city": "Atlantic City", "airport": "Atlantic City Municipal Airport", "state": "New Jersey", "lat": 39.36, "lng": 74.45611, "faa": ["Atlantic City Municipal Airport"]},
{"city": "Flemington", "airport": "Bradford Field", "state": "New Jersey", "lat": 40.50056, "lng": 74.95611, "faa": ["none", "none", "NJ49"]},
{"city": "Pemberton", "airport": "Pemberton Airport", "state": "New Jersey", "lat": 39.98194, "lng": 74.69278, "faa": ["3NJ1"]},
{"city": "Lakehurst", "airport": "NAES Lakehurst", "state": "New Jersey", "lat": 40.03333, "lng": 74.35361, "faa": ["Maxfield Field", "NEL", "KNEL", "NEL"]},
{"city": "Wrightstown", "airport": "McGuire Air Force Base", "state": "New Jersey", "lat": 40.01556, "lng": 74.59167, "faa": ["WRI", "KWRI", "WRI"]},
{"city": "Williamstown", "airport": "Southern Cross Airport", "state": "New Jersey", "lat": 39.65555556, "lng": 75.0144444, "faa": ["C01"]},
{"city": "West Creek", "airport": "Eagles Nest Airport", "state": "New Jersey", "lat": 39.665389, "lng": 74.307917, "faa": ["31E"]},
{"city": "Vincentown", "airport": "Red Lion Airport", "state": "New Jersey", "lat": 39.90415167, "lng": 74.74955, "faa": ["N73"]},
{"city": "Vineland", "airport": "Kroelinger Airport", "state": "New Jersey", "lat": 39.52389, "lng": 75.04639, "faa": ["29N"]},
{"city": "Pittstown", "airport": "Sky Manor Airport", "state": "New Jersey", "lat": 40.56639, "lng": 74.97861, "faa": ["N40"]},
{"city": "Pittstown", "airport": "Alexandria Airport", "state": "New Jersey", "lat": 40.5875, "lng": 75.01917, "faa": ["N85"]},
{"city": "Pedricktown", "airport": "Spitfire Aerodrome", "state": "New Jersey", "lat": 39.73556, "lng": 75.39778, "faa": ["7N7"]},
{"city": "Old Bridge", "airport": "Old Bridge Airport", "state": "New Jersey", "lat": 40.32988667, "lng": 74.3467861, "faa": ["3N6"]},
{"city": "Newton", "airport": "Newton Airport", "state": "New Jersey", "lat": 41.02722, "lng": 74.75861, "faa": ["3N5"]},
{"city": "Lumberton", "airport": "Flying W Airport", "state": "New Jersey", "lat": 39.934278, "lng": 74.80725, "faa": ["N14"]},
{"city": "Little Ferry", "airport": "Little Ferry Seaplane Base", "state": "New Jersey", "lat": 40.84278, "lng": 74.03, "faa": ["2N7"]},
{"city": "Jobstown", "airport": "Redwing Airport", "state": "New Jersey", "lat": 40.02650111, "lng": 74.6926583, "faa": ["2N6"]},
{"city": "Hackettstown", "airport": "Hackettstown Airport", "state": "New Jersey", "lat": 40.821778, "lng": 74.85417, "faa": ["N05"]},
{"city": "Conchas Dam", "airport": "Conchas Lake Seaplane Base", "state": "New Mexico", "lat": 35.38417, "lng": 104.21639, "faa": ["E61"]},
{"city": "Zuni Pueblo", "airport": "Black Rock Airport", "state": "New Mexico", "lat": 35.08306, "lng": 108.79167, "faa": ["KZUN", "ZUN"]},
{"city": "Tucumcari", "airport": "Tucumcari Municipal Airport", "state": "New Mexico", "lat": 35.18278, "lng": 103.60306, "faa": ["TCC", "KTCC", "TCC"]},
{"city": "Taos", "airport": "Taos Regional Airport", "state": "New Mexico", "lat": 36.45806, "lng": 105.6725, "faa": ["TSM", "KSKX", "SKX"]},
{"city": "Truth or Consequences", "airport": "Truth or Consequences Municipal Airport", "state": "New Mexico", "lat": 33.23694, "lng": 107.27167, "faa": ["TCS", "KTCS", "TCS"]},
{"city": "Springer", "airport": "Springer Municipal Airport", "state": "New Mexico", "lat": 36.33139, "lng": 104.61778, "faa": ["S42"]},
{"city": "Shiprock", "airport": "Shiprock Airstrip", "state": "New Mexico", "lat": 36.69778, "lng": 108.70111, "faa": ["5V5"]},
{"city": "Santa Rosa", "airport": "Santa Rosa Route 66 Airport", "state": "New Mexico", "lat": 34.93556, "lng": 104.6425, "faa": ["KSXU", "SXU"]},
{"city": "Vineland", "airport": "Vineland-Downstown Airport", "state": "New Jersey", "lat": 39.53944, "lng": 74.96778, "faa": ["28N"]},
{"city": "Raton", "airport": "Raton Municipal Airport", "state": "New Mexico", "lat": 36.74167, "lng": 104.50222, "faa": ["RTN", "KRTN", "RTN"]},
{"city": "Portales", "airport": "Portales Municipal Airport", "state": "New Mexico", "lat": 34.14556, "lng": 103.41028, "faa": ["KPRZ", "PRZ"]},
{"city": "Navajo Dam", "airport": "Navajo Lake Airport", "state": "New Mexico", "lat": 36.80833, "lng": 107.65139, "faa": ["1V0"]},
{"city": "Magdalena", "airport": "Magdalena Airport", "state": "New Mexico", "lat": 13.308417, "lng": 64.136639, "faa": ["MGD", "SLMG"]},
{"city": "Lovington", "airport": "Lea County-Zip Franklin Memorial Airport", "state": "New Mexico", "lat": 32.95389, "lng": 103.40889, "faa": ["E06"]},
{"city": "Los Alamos", "airport": "Los Alamos Airport", "state": "New Mexico", "lat": 35.87972, "lng": 106.26861, "faa": ["LAM", "KLAM", "LAM"]},
{"city": "Las Vegas", "airport": "Las Vegas Municipal Airport", "state": "New Mexico", "lat": 35.65417, "lng": 105.1425, "faa": ["LVS", "KLVS", "LVS"]},
{"city": "Lane", "airport": "Lane Airport", "state": "South Carolina", "lat": 33.48139, "lng": 79.88778, "faa": []},
{"city": "North Charleston", "airport": "NAS Charleston", "state": "South Carolina", "lat": 32.89861, "lng": 80.04056, "faa": ["CHS", "KCHS", "CHS"]},
{"city": "North", "airport": "North Air Force Auxiliary Field", "state": "South Carolina", "lat": 33.61694, "lng": 81.08306, "faa": ["KXNO", "XNO"]},
{"city": "Sumter", "airport": "Shaw Air Force Base", "state": "South Carolina", "lat": 33.97306, "lng": 80.47278, "faa": ["SSC", "KSSC", "SSC"]},
{"city": "Eastover", "airport": "McEntire JNGB", "state": "South Carolina", "lat": 33.92083, "lng": 80.80111, "faa": ["MMT", "KMMT", "MMT"]},
{"city": "Beaufort", "airport": "MCAS Beaufort", "state": "South Carolina", "lat": 32.47722, "lng": 80.72306, "faa": ["Merritt Field", "BFT", "KNBC", "NBC"]},
{"city": "Ruidoso", "airport": "Sierra Blanca Regional Airport", "state": "New Mexico", "lat": 33.46278, "lng": 105.53472, "faa": ["RUI", "KSRR", "SRR"]},
{"city": "Lake City", "airport": "Lake City Municipal Airport", "state": "South Carolina", "lat": 33.85361, "lng": 79.76806, "faa": ["CJ Evans Field", "51J"]},
{"city": "Graniteville", "airport": "Twin Lakes Airport", "state": "South Carolina", "lat": 33.64556, "lng": 81.86694, "faa": ["S17"]},
{"city": "Green Sea", "airport": "Green Sea Airport", "state": "South Carolina", "lat": 34.18556, "lng": 79.02056, "faa": ["S79"]},
{"city": "Weatherford", "airport": "Thomas P. Stafford Airport", "state": "Oklahoma", "lat": 35.54583, "lng": 98.66861, "faa": ["KOJA", "OJA"]},
{"city": "Watonga", "airport": "Watonga Regional Airport", "state": "Oklahoma", "lat": 35.86444, "lng": 98.42083, "faa": ["KJWG", "JWG"]},
{"city": "Tahlequah", "airport": "Tahlequah Municipal Airport", "state": "Oklahoma", "lat": 35.93028, "lng": 95.00444, "faa": ["KTQH", "TQH"]},
{"city": "Stroud", "airport": "Stroud Municipal Airport", "state": "Oklahoma", "lat": 35.78944, "lng": 96.65556, "faa": ["SUD", "KSUD", "SUD"]},
{"city": "Stillwater", "airport": "Stillwater Regional Airport", "state": "Oklahoma", "lat": 36.16111, "lng": 97.08556, "faa": ["Searcy Field", "SWO", "KSWO", "SWO"]},
{"city": "Stigler", "airport": "Stigler Regional Airport", "state": "Oklahoma", "lat": 35.28806, "lng": 95.09389, "faa": ["KGZL", "GZL"]},
{"city": "Shawnee", "airport": "Shawnee Regional Airport", "state": "Oklahoma", "lat": 35.35722, "lng": 96.94278, "faa": ["SNL", "KSNL", "SNL"]},
{"city": "Seminole", "airport": "Seminole Municipal Airport", "state": "Oklahoma", "lat": 35.27472, "lng": 96.67528, "faa": ["KSRE", "SRE"]},
{"city": "Sand Springs", "airport": "William R. Pogue Municipal Airport", "state": "Oklahoma", "lat": 36.17528, "lng": 96.15194, "faa": ["KOWP", "OWP"]},
{"city": "Sallisaw", "airport": "Sallisaw Municipal Airport", "state": "Oklahoma", "lat": 35.43833, "lng": 94.80278, "faa": ["KJSV", "JSV"]},
{"city": "Pryor", "airport": "MidAmerica Industrial Park Airport", "state": "Oklahoma", "lat": 36.2253944, "lng": 95.3300639, "faa": ["H71"]},
{"city": "Roseburg", "airport": "George Felt Airport", "state": "Oregon", "lat": 43.224837778, "lng": 123.397028, "faa": ["FAA: 5S1"]},
{"city": "Rome", "airport": "Rome State Airport", "state": "Oregon", "lat": 42.57778, "lng": 117.88556, "faa": ["REO", "KREO", "REO"]},
{"city": "Prospect", "airport": "Prospect State Airport", "state": "Oregon", "lat": 42.743183056, "lng": 122.488090278, "faa": ["64S"]},
{"city": "Powers", "airport": "Powers Airport", "state": "Oregon", "lat": 42.869554444, "lng": 124.0592639, "faa": ["6S6"]},
{"city": "Pinehurst", "airport": "Pinehurst State Airport", "state": "Oregon", "lat": 42.1102, "lng": 122.3831917, "faa": ["FAA: 24S"]},
{"city": "Paisley", "airport": "Paisley Airport", "state": "Oregon", "lat": 42.717929722, "lng": 120.56275, "faa": ["22S"]},
{"city": "Pacific City", "airport": "Pacific City State Airport", "state": "Oregon", "lat": 45.19972, "lng": 123.96222, "faa": ["PFC", "KPFC", "PFC"]},
{"city": "Owyhee", "airport": "Owyhee Reservoir State Airport", "state": "Oregon", "lat": 43.424881389, "lng": 117.3454389, "faa": ["28U"]},
{"city": "McKenzie Bridge", "airport": "McKenzie Bridge State Airport", "state": "Oregon", "lat": 44.183177778, "lng": 122.0886667, "faa": ["00S"]},
{"city": "Newberg", "airport": "Chehalem Airpark", "state": "Oregon", "lat": 45.323727778, "lng": 123.0542694, "faa": ["- FAA: 17S"]},
{"city": "Monument", "airport": "Monument Municipal Airport", "state": "Oregon", "lat": 44.831813611, "lng": 119.4302694, "faa": ["12S"]},
{"city": "Oakridge", "airport": "Oakridge State Airport", "state": "Oregon", "lat": 43.752623333, "lng": 122.5025528, "faa": ["5S0"]},
{"city": "Manzanita", "airport": "Nehalem Bay State Airport", "state": "Oregon", "lat": 45.698161667, "lng": 123.9298556, "faa": ["3S7"]},
{"city": "Malin", "airport": "Malin Airport", "state": "Oregon", "lat": 42.000988889, "lng": 121.3963806, "faa": ["FAA: 4S7"]},
{"city": "Lakeside", "airport": "Lakeside State Airport", "state": "Oregon", "lat": 43.583170278, "lng": 124.1803917, "faa": ["9S3"]},
{"city": "Imnaha", "airport": "Memaloose Airport", "state": "Oregon", "lat": 45.427658333, "lng": 116.6937583, "faa": ["25U"]},
{"city": "Hubbard", "airport": "Lenhardt Airpark", "state": "Oregon", "lat": 45.180398333, "lng": 122.743425, "faa": ["7S9"]},
{"city": "Fredericksburg", "airport": "Farmers Pride Airport", "state": "Pennsylvania", "lat": 40.4428694, "lng": 76.4416278, "faa": ["9N7"]},
{"city": "Hillsboro", "airport": "Stark's Twin Oaks Airpark", "state": "Oregon", "lat": 45.42833, "lng": 122.94222, "faa": ["7S3"]},
{"city": "Essington", "airport": "Philadelphia Seaplane Base", "state": "Pennsylvania", "lat": 39.86056, "lng": 75.3, "faa": ["PSQ", "9N2"]},
{"city": "Erwinna", "airport": "Van Sant Airport", "state": "Pennsylvania", "lat": 40.48417, "lng": 75.09972, "faa": ["9N1"]},
{"city": "Easton", "airport": "Braden Airpark", "state": "Pennsylvania", "lat": 40.74194, "lng": 75.24278, "faa": ["N43"]},
{"city": "East Stroudsburg", "airport": "Stroudsburg-Pocono Airport", "state": "Pennsylvania", "lat": 41.03583, "lng": 75.16056, "faa": ["N53"]},
{"city": "Danville", "airport": "Danville Airport", "state": "Pennsylvania", "lat": 40.95139, "lng": 76.64278, "faa": ["8N8"]},
{"city": "Cresco", "airport": "Rocky Hill Ultralight Flightpark", "state": "Pennsylvania", "lat": 41.14778, "lng": 75.275, "faa": ["48P"]},
{"city": "Collegeville", "airport": "Perkiomen Valley Airport", "state": "Pennsylvania", "lat": 40.20417, "lng": 75.43028, "faa": ["N10"]},
{"city": "Wilmington", "airport": "Clinton Field", "state": "Ohio", "lat": 39.5025, "lng": 83.86333, "faa": ["I66"]},
{"city": "West Union", "airport": "Alexander Salamon Airport", "state": "Ohio", "lat": 38.85139, "lng": 83.56611, "faa": ["none", "KAMT", "AMT"]},
{"city": "Waverly", "airport": "Pike County Airport", "state": "Ohio", "lat": 39.16694, "lng": 82.92806, "faa": ["KEOP", "EOP"]},
{"city": "Wauseon", "airport": "Fulton County Airport", "state": "Ohio", "lat": 41.61, "lng": 84.12722, "faa": ["KUSE", "USE"]},
{"city": "Washington C.H.", "airport": "Fayette County Airport", "state": "Ohio", "lat": 39.57028, "lng": 83.42056, "faa": ["I23"]},
{"city": "Warren", "airport": "Warren Airport", "state": "Ohio", "lat": 41.26694, "lng": 80.92722, "faa": ["62D"]},
{"city": "Wapakoneta", "airport": "Neil Armstrong Airport", "state": "Ohio", "lat": 40.49361, "lng": 84.29806, "faa": ["AXV", "KAXV", "AXV"]},
{"city": "Versailles", "airport": "Darke County Airport", "state": "Ohio", "lat": 40.20444, "lng": 84.53194, "faa": ["KVES", "VES"]},
{"city": "Urbana", "airport": "Grimes Field", "state": "Ohio", "lat": 40.1325, "lng": 83.75361, "faa": ["I74"]},
{"city": "Tiffin", "airport": "Seneca County Airport", "state": "Ohio", "lat": 41.09389, "lng": 83.2125, "faa": ["16G"]},
{"city": "Steubenville", "airport": "Jefferson County Airpark", "state": "Ohio", "lat": 40.360222, "lng": 80.700889, "faa": ["2G2"]},
{"city": "Ravenna", "airport": "Portage County Airport", "state": "Ohio", "lat": 41.21028, "lng": 81.25167, "faa": ["KPOV", "POV"]},
{"city": "Springfield", "airport": "Springfield-Beckley Municipal Airport", "state": "Ohio", "lat": 39.84028, "lng": 83.84028, "faa": ["SGH", "KSGH", "SGH"]},
{"city": "Put-in-Bay", "airport": "Put-in-Bay Airport", "state": "Ohio", "lat": 41.63667, "lng": 82.82833, "faa": ["3W2"]},
{"city": "Sidney", "airport": "Sidney Municipal Airport", "state": "Ohio", "lat": 40.24139, "lng": 84.15083, "faa": ["I12"]},
{"city": "Portsmouth", "airport": "Greater Portsmouth Regional Airport", "state": "Ohio", "lat": 38.84056, "lng": 82.84722, "faa": ["PMH", "KPMH", "PMH"]},
{"city": "Oxford", "airport": "Miami University Airport", "state": "Ohio", "lat": 39.50222, "lng": 84.78444, "faa": ["OXD", "KOXD", "OXD"]},
{"city": "Ottawa", "airport": "Putnam County Airport", "state": "Ohio", "lat": 39.63222, "lng": 86.81389, "faa": ["4I7"]},
{"city": "Newark", "airport": "Newark-Heath Airport", "state": "Ohio", "lat": 40.02472, "lng": 82.46194, "faa": ["KVTA", "VTA"]},
{"city": "New Philadelphia", "airport": "Harry Clever Field", "state": "Ohio", "lat": 40.47028, "lng": 81.42, "faa": ["PHD", "KPHD", "PHD"]},
{"city": "New Lexington", "airport": "Perry County Airport", "state": "Ohio", "lat": 39.69167, "lng": 82.19778, "faa": ["I86"]},
{"city": "Mission", "airport": "Mission Sioux Airport", "state": "South Dakota", "lat": 43.30694, "lng": 100.62806, "faa": ["0V6"]},
{"city": "McIntosh", "airport": "McIntosh Municipal Airport", "state": "South Dakota", "lat": 45.90833, "lng": 101.34611, "faa": ["8D6"]},
{"city": "Harrold", "airport": "Harrold Municipal Airport", "state": "South Dakota", "lat": 44.53083, "lng": 99.7475, "faa": ["5G3"]},
{"city": "Dupree", "airport": "Dupree Municipal Airport", "state": "South Dakota", "lat": 45.04528, "lng": 101.60611, "faa": ["7F2"]},
{"city": "Rapid City", "airport": "Ellsworth Air Force Base", "state": "South Dakota", "lat": 44.14639, "lng": 103.07472, "faa": ["RCA", "KRCA", "RCA"]},
{"city": "Hickory", "airport": "Wilson's Airport", "state": "North Carolina", "lat": 35.65194, "lng": 81.35778, "faa": ["E40"]},
{"city": "Charlotte", "airport": "Wilgrove Air Park", "state": "North Carolina", "lat": 35.21389, "lng": 80.67, "faa": ["QWG", "8A6"]},
{"city": "Williamston", "airport": "Martin County Airport", "state": "North Carolina", "lat": 35.86222, "lng": 77.17833, "faa": ["KMCZ", "MCZ"]},
{"city": "Whiteville", "airport": "Columbus County Municipal Airport", "state": "North Carolina", "lat": 34.27278, "lng": 78.715, "faa": ["KCPC", "CPC"]},
{"city": "Chapel Hill", "airport": "Horace Williams Airport", "state": "North Carolina", "lat": 35.935, "lng": 79.06583, "faa": ["KIGX", "IGX"]},
{"city": "West Jefferson", "airport": "Ashe County Airport", "state": "North Carolina", "lat": 36.4325, "lng": 81.41972, "faa": ["KGEV", "GEV"]},
{"city": "Wallace", "airport": "Henderson Field", "state": "North Carolina", "lat": 34.71778, "lng": 78.00361, "faa": ["KACZ", "ACZ"]},
{"city": "Winston-Salem", "airport": "Smith Reynolds Airport", "state": "North Carolina", "lat": 36.13361, "lng": 80.22194, "faa": ["INT", "KINT", "INT"]},
{"city": "Casper", "airport": "Harford Field", "state": "Wyoming", "lat": 42.92444, "lng": 106.30944, "faa": ["KHAD", "HAD"]},
{"city": "Torrington", "airport": "Torrington Municipal Airport", "state": "Wyoming", "lat": 42.06444, "lng": 104.15278, "faa": ["TOR", "KTOR", "TOR"]},
{"city": "Thermopolis", "airport": "Hot Springs County-Thermopolis Municipal Airport", "state": "Wyoming", "lat": 43.65833, "lng": 108.2125, "faa": ["THP", "KTHP "]},
{"city": "Saratoga", "airport": "Shively Field", "state": "Wyoming", "lat": 41.44472, "lng": 106.82361, "faa": ["SAA", "KSAA", "SAA"]},
{"city": "Rawlins", "airport": "Rawlins Municipal Airport", "state": "Wyoming", "lat": 41.80556, "lng": 107.2, "faa": ["Harvey Field", "RWL", "KRWL", "RWL"]},
{"city": "Pinedale", "airport": "Ralph Wenz Field", "state": "Wyoming", "lat": 42.79556, "lng": 109.80722, "faa": ["PWY", "KPNA", "PNA"]},
{"city": "Lander", "airport": "Hunt Field", "state": "Wyoming", "lat": 42.81556, "lng": 108.72833, "faa": ["LND", "KLND", "LND"]},
{"city": "Kemmerer", "airport": "Kemmerer Municipal Airport", "state": "Wyoming", "lat": 41.82417, "lng": 110.55694, "faa": ["EMM", "KEMM", "EMM"]},
{"city": "Dubois", "airport": "Dubois Municipal Airport", "state": "Wyoming", "lat": 43.54833, "lng": 109.69028, "faa": ["KDUB", "DUB"]},
{"city": "Douglas", "airport": "Converse County Airport", "state": "Wyoming", "lat": 42.79722, "lng": 105.38583, "faa": ["DGW", "KDGW", "DGW"]},
{"city": "Columbus", "airport": "Columbus Municipal Airport", "state": "Nebraska", "lat": 41.44806, "lng": 97.34278, "faa": ["OLU", "KOLU", "OLU"]},
{"city": "Cambridge", "airport": "Cambridge Municipal Airport", "state": "Nebraska", "lat": 40.30667, "lng": 100.16222, "faa": ["KCSB", "CSB"]},
{"city": "Broken Bow", "airport": "Broken Bow Municipal Airport", "state": "Nebraska", "lat": 41.43639, "lng": 99.64222, "faa": ["BBW", "KBBW", "BBW"]},
{"city": "Beatrice", "airport": "Beatrice Municipal Airport", "state": "Nebraska", "lat": 40.30111, "lng": 96.75389, "faa": ["KBIE", "BIE"]},
{"city": "Bassett", "airport": "Rock County Airport", "state": "Nebraska", "lat": 42.57111, "lng": 99.56944, "faa": ["KRBE", "RBE"]},
{"city": "Aurora", "airport": "Aurora Municipal Airport", "state": "Nebraska", "lat": 40.89417, "lng": 97.99444, "faa": ["Al Potter Field", "KAUH", "AUH"]},
{"city": "Albion", "airport": "Albion Municipal Airport", "state": "Nebraska", "lat": 41.72861, "lng": 98.05583, "faa": ["KBVN", "BVN"]},
{"city": "Ainsworth", "airport": "Ainsworth Regional Airport", "state": "Nebraska", "lat": 42.57917, "lng": 99.99306, "faa": ["ANW", "KANW", "ANW"]},
{"city": "Omaha", "airport": "Millard Airport", "state": "Nebraska", "lat": 41.19611, "lng": 96.11222, "faa": ["MIQ", "KMLE", "MLE"]},
{"city": "McCook", "airport": "McCook Ben Nelson Regional Airport", "state": "Nebraska", "lat": 40.20639, "lng": 100.59222, "faa": ["MCK", "KMCK", "MCK"]},
{"city": "Chadron", "airport": "Chadron Municipal Airport", "state": "Nebraska", "lat": 42.8375, "lng": 103.09528, "faa": ["CDR", "KCDR", "CDR"]},
{"city": "Alliance", "airport": "Alliance Municipal Airport", "state": "Nebraska", "lat": 42.05333, "lng": 102.80389, "faa": ["AIA", "KAIA", "AIA"]},
{"city": "Scottsbluff", "airport": "Western Nebraska Regional Airport", "state": "Nebraska", "lat": 41.87389, "lng": 103.59556, "faa": ["BFF", "KBFF", "BFF"]},
{"city": "North Platte", "airport": "North Platte Regional Airport", "state": "Nebraska", "lat": 41.12611, "lng": 100.68361, "faa": ["Lee Bird Field", "LBF", "KLBF", "LBF"]},
{"city": "Kearney", "airport": "Kearney Regional Airport", "state": "Nebraska", "lat": 40.72694, "lng": 99.00667, "faa": ["EAR", "KEAR", "EAR"]},
{"city": "Carson City", "airport": "Parker Carson Airport", "state": "Nevada", "lat": 39.20167, "lng": 119.68333, "faa": ["2Q5"]},
{"city": "Yerington", "airport": "Yerington Municipal Airport", "state": "Nevada", "lat": 39.00556, "lng": 119.15667, "faa": ["O43"]},
{"city": "Winnemucca", "airport": "Winnemucca Municipal Airport", "state": "Nevada", "lat": 40.89667, "lng": 117.80583, "faa": ["WMC", "KWMC", "WMC"]},
{"city": "Wells", "airport": "Wells Municipal Airport", "state": "Nevada", "lat": 41.11722, "lng": 114.92222, "faa": ["Harriet Field", "LWL", "KLWL", "LWL"]},
{"city": "Tonopah", "airport": "Tonopah Airport", "state": "Nevada", "lat": 38.06028, "lng": 117.08667, "faa": ["TPH", "KTPH", "TPH"]},
{"city": "Silver Springs", "airport": "Silver Springs Airport", "state": "Nevada", "lat": 39.40306, "lng": 119.25111, "faa": ["KSPZ", "SPZ"]},
{"city": "Panaca", "airport": "Lincoln County Airport", "state": "Nevada", "lat": 37.7875, "lng": 114.42, "faa": ["1L1"]},
{"city": "Owyhee", "airport": "Owyhee Airport", "state": "Nevada", "lat": 41.95361, "lng": 116.18194, "faa": ["1\u00d8U"]},
{"city": "Overton", "airport": "Overton Municipal Airport", "state": "Nevada", "lat": 36.56806, "lng": 114.44333, "faa": ["Overton Municipal Airport", "U\u00d88"]},
{"city": "Minden", "airport": "Minden-Tahoe Airport", "state": "Nevada", "lat": 39.00083, "lng": 119.75194, "faa": ["MEV", "KMEV", "MEV"]},
{"city": "Mesquite", "airport": "Mesquite Airport", "state": "Nevada", "lat": 36.83306, "lng": 114.05583, "faa": ["MFH", "67L"]},
{"city": "Lovelock", "airport": "Derby Field", "state": "Nevada", "lat": 40.06639, "lng": 118.565, "faa": ["LOL", "KLOL", "LOL"]},
{"city": "Jean", "airport": "Jean Airport", "state": "Nevada", "lat": 35.76833, "lng": 115.32972, "faa": ["\u00d8L7"]},
{"city": "Hawthorne", "airport": "Hawthorne Industrial Airport", "state": "Nevada", "lat": 38.54444, "lng": 118.63417, "faa": ["HTH", "KHTH", "HTH"]},
{"city": "Jackpot", "airport": "Jackpot Airport", "state": "Nevada", "lat": 41.97583, "lng": 114.65806, "faa": ["Hayden Field", "KPT", "\u00d86U"]},
{"city": "Gabbs", "airport": "Gabbs Airport", "state": "Nevada", "lat": 38.92417, "lng": 117.95889, "faa": ["GAB", "KGAB", "GAB"]},
{"city": "Fallon", "airport": "Fallon Municipal Airport", "state": "Nevada", "lat": 39.49917, "lng": 118.74889, "faa": ["FLX", "KFLX", "FLX"]},
{"city": "Eureka", "airport": "Eureka Airport", "state": "Nevada", "lat": 39.60389, "lng": 116.00361, "faa": ["EUE", "\u00d85U"]},
{"city": "Cal-Nev-Ari", "airport": "Kidwell Airport", "state": "Nevada", "lat": 35.30556, "lng": 114.88278, "faa": ["1L4"]},
{"city": "Beatty", "airport": "Beatty Airport", "state": "Nevada", "lat": 36.86111, "lng": 116.78694, "faa": ["BTY", "KBTY", "BTY"]},
{"city": "Battle Mountain", "airport": "Battle Mountain Airport", "state": "Nevada", "lat": 40.59972, "lng": 116.87611, "faa": ["BAM", "KBAM", "BAM"]},
{"city": "Austin", "airport": "Austin Airport", "state": "Nevada", "lat": 39.46806, "lng": 117.1975, "faa": ["ASQ", "KTMT", "TMT"]},
{"city": "Alamo", "airport": "Alamo Landing Field", "state": "Nevada", "lat": 37.3625, "lng": 115.19444, "faa": ["L92"]},
{"city": "Las Vegas", "airport": "Henderson Executive Airport", "state": "Nevada", "lat": 35.97278, "lng": 115.13444, "faa": ["HSH", "KHND", "HND"]},
{"city": "Reno", "airport": "Reno/Stead Airport", "state": "Nevada", "lat": 39.66806, "lng": 119.87639, "faa": ["KRTS", "RTS"]},
{"city": "Lancaster", "airport": "Buffalo-Lancaster Regional Airport", "state": "New York", "lat": 42.92222, "lng": 78.61222, "faa": ["KBQR", "BQR"]},
{"city": "Carson City", "airport": "Carson Airport", "state": "Nevada", "lat": 39.19222, "lng": 119.73444, "faa": ["Carson City Airport", "CSN", "KCXP", "CXP"]},
{"city": "Kingston", "airport": "Kingston-Ulster Airport", "state": "New York", "lat": 41.98528, "lng": 73.96444, "faa": ["20N"]},
{"city": "Brockport", "airport": "Ledgedale Airpark", "state": "New York", "lat": 43.181194, "lng": 77.9155, "faa": ["7G0"]},
{"city": "East Moriches", "airport": "Spadaro Airport", "state": "New York", "lat": 40.82778, "lng": 72.74861, "faa": ["1N2"]},
{"city": "Batavia", "airport": "Genesee County Airport", "state": "New York", "lat": 43.03167, "lng": 78.16972, "faa": ["KGVQ", "GVQ"]},
{"city": "Akron", "airport": "Akron Airport", "state": "New York", "lat": 43.02111, "lng": 78.4825, "faa": ["9G3"]},
{"city": "Canandaigua", "airport": "Canandaigua Airport", "state": "New York", "lat": 42.9071861, "lng": 77.3216278, "faa": ["D38"]},
{"city": "Buffalo", "airport": "Buffalo Airfield", "state": "New York", "lat": 42.86194, "lng": 78.71639, "faa": ["9G0"]},
{"city": "Ogdensburg", "airport": "Ogdensburg International Airport", "state": "New York", "lat": 44.68194, "lng": 75.46556, "faa": ["OGS", "KOGS", "OGS"]},
{"city": "Massena", "airport": "Massena International Airport", "state": "New York", "lat": 44.93583, "lng": 74.84556, "faa": ["Richards Field", "MSS", "KMSS", "MSS"]},
{"city": "White Plains", "airport": "Westchester County Airport", "state": "New York", "lat": 41.06694, "lng": 73.7075, "faa": ["HPN", "KHPN", "HPN"]},
{"city": "Watertown", "airport": "Watertown International Airport", "state": "New York", "lat": 43.99194, "lng": 76.02056, "faa": ["ART", "KART", "ART"]},
{"city": "Saranac Lake", "airport": "Adirondack Regional Airport", "state": "New York", "lat": 44.38528, "lng": 74.20611, "faa": ["SLK", "KSLK", "SLK"]},
{"city": "Syracuse", "airport": "Syracuse Hancock International Airport", "state": "New York", "lat": 43.11111, "lng": 76.10639, "faa": ["SYR", "KSYR", "SYR"]},
{"city": "Niagara Falls", "airport": "Niagara Falls International Airport", "state": "New York", "lat": 43.10722, "lng": 78.94611, "faa": ["IAG", "KIAG", "IAG"]},
{"city": "Rochester", "airport": "Greater Rochester International Airport", "state": "New York", "lat": 43.11889, "lng": 77.6725, "faa": ["ROC", "KROC", "ROC"]},
{"city": "Plattsburgh", "airport": "Plattsburgh International Airport", "state": "New York", "lat": 44.65083, "lng": 73.46806, "faa": ["PBG", "KPBG", "PBG"]},
{"city": "Jamestown", "airport": "Chautauqua County/Jamestown Airport", "state": "New York", "lat": 42.15333, "lng": 79.25806, "faa": ["JHW", "KJHW", "JHW"]},
{"city": "Newburgh", "airport": "Stewart International Airport", "state": "New York", "lat": 41.50417, "lng": 74.10472, "faa": ["SWF", "KSWF", "SWF"]},
{"city": "New York", "airport": "LaGuardia Airport", "state": "New York", "lat": 40.77725, "lng": 73.872611, "faa": ["LGA", "KLGA", "LGA", "72503"]},
{"city": "Ithaca", "airport": "Ithaca Tompkins Regional Airport", "state": "New York", "lat": 42.49139, "lng": 76.45861, "faa": ["ITH", "KITH", "ITH"]},
{"city": "Elmira", "airport": "Elmira/Corning Regional Airport", "state": "New York", "lat": 42.16, "lng": 76.89167, "faa": ["ELM", "KELM", "ELM"]},
{"city": "North Conway", "airport": "White Mountain Airport", "state": "New Hampshire", "lat": 44.0225, "lng": 71.11139, "faa": []},
{"city": "Islip", "airport": "Long Island MacArthur Airport", "state": "New York", "lat": 40.79528, "lng": 73.10028, "faa": ["ISP", "KISP", "ISP"]},
{"city": "Buffalo", "airport": "Buffalo Niagara International Airport", "state": "New York", "lat": 42.94056, "lng": 78.73222, "faa": ["BUF", "KBUF", "BUF"]},
{"city": "New York", "airport": "John F. Kennedy International Airport", "state": "New York", "lat": 40.63972, "lng": 73.77889, "faa": ["JFK", "KJFK", "JFK", "74486"]},
{"city": "Binghamton", "airport": "Greater Binghamton Airport", "state": "New York", "lat": 42.20861, "lng": 75.97972, "faa": ["BGM", "KBGM", "BGM"]},
{"city": "Deering", "airport": "Hawthorne-Feather Airpark", "state": "New Hampshire", "lat": 43.06194, "lng": 71.905, "faa": ["8B1"]},
{"city": "Gorham", "airport": "Gorham Airport", "state": "New Hampshire", "lat": 44.39306, "lng": 71.19667, "faa": ["2G8"]},
{"city": "Franconia", "airport": "Franconia Airport", "state": "New Hampshire", "lat": 44.19583, "lng": 71.74944, "faa": ["1B5"]},
{"city": "Whitefield", "airport": "Mount Washington Regional Airport", "state": "New Hampshire", "lat": 44.3676139, "lng": 71.5444694, "faa": ["HIE", "KHIE"]},
{"city": "Alton Bay", "airport": "Alton Bay Seaplane Base", "state": "New Hampshire", "lat": 43.4775, "lng": 71.23694, "faa": ["B18"]},
{"city": "Rochester", "airport": "Skyhaven Airport", "state": "New Hampshire", "lat": 43.28417, "lng": 70.92917, "faa": ["KDAW", "DAW"]},
{"city": "Cross Keys", "airport": "Cross Keys Airport", "state": "New Jersey", "lat": 39.70556, "lng": 75.03306, "faa": ["17N"]},
{"city": "Bridgeton", "airport": "Bucks Airport", "state": "New Jersey", "lat": 39.47306, "lng": 75.18444, "faa": ["00N"]},
{"city": "Blairstown", "airport": "Blairstown Airport", "state": "New Jersey", "lat": 40.97111, "lng": 74.9975, "faa": ["1N7"]},
{"city": "Berlin", "airport": "Camden County Airport", "state": "New Jersey", "lat": 39.77833, "lng": 74.94778, "faa": ["19N"]},
{"city": "Andover", "airport": "Trinca Airport", "state": "New Jersey", "lat": 40.96611, "lng": 74.78167, "faa": ["13N"]},
{"city": "Andover", "airport": "Aeroflex-Andover Airport", "state": "New Jersey", "lat": 41.00861972, "lng": 74.73803389, "faa": ["12N"]},
{"city": "Woodbine", "airport": "Woodbine Municipal Airport", "state": "New Jersey", "lat": 39.21917, "lng": 74.79472, "faa": ["KOBI", "OBI"]},
{"city": "Wildwood", "airport": "Cape May Airport", "state": "New Jersey", "lat": 39.00861, "lng": 74.90861, "faa": ["Cape May County Airport", "WWD", "KWWD", "WWD"]},
{"city": "Farmingdale", "airport": "Republic Airport", "state": "New York", "lat": 40.72889, "lng": 73.41333, "faa": ["FRG", "KFRG", "FRG"]},
{"city": "West Milford", "airport": "Greenwood Lake Airport", "state": "New Jersey", "lat": 41.12833, "lng": 74.34667, "faa": ["4N1"]},
{"city": "Toms River", "airport": "Robert J. Miller Air Park", "state": "New Jersey", "lat": 39.9275, "lng": 74.2925, "faa": ["MJX", "KMJX", "MJX"]},
{"city": "Ocean City", "airport": "Ocean City Municipal Airport", "state": "New Jersey", "lat": 39.26333, "lng": 74.6075, "faa": ["26N"]},
{"city": "Lakewood", "airport": "Lakewood Airport", "state": "New Jersey", "lat": 40.06667, "lng": 74.17778, "faa": ["N12"]},
{"city": "Millville", "airport": "Millville Municipal Airport", "state": "New Jersey", "lat": 39.36778, "lng": 75.07222, "faa": ["MIV", "KMIV", "MIV"]},
{"city": "Hammonton", "airport": "Hammonton Municipal Airport", "state": "New Jersey", "lat": 39.66746889, "lng": 74.7577333, "faa": ["N81"]},
{"city": "Sussex", "airport": "Sussex Airport", "state": "New Jersey", "lat": 41.20028, "lng": 74.62306, "faa": ["KFWN", "FWN"]},
{"city": "Robbinsville", "airport": "Trenton-Robbinsville Airport", "state": "New Jersey", "lat": 40.21389, "lng": 74.60167, "faa": ["N87"]},
{"city": "Readington", "airport": "Solberg-Hunterdon Airport", "state": "New Jersey", "lat": 40.5802, "lng": 74.7355, "faa": ["N51"]},
{"city": "Princeton", "airport": "Princeton Airport", "state": "New Jersey", "lat": 40.39917, "lng": 74.65889, "faa": ["PCT", "39N"]},
{"city": "Mount Holly", "airport": "South Jersey Regional Airport", "state": "New Jersey", "lat": 39.94278, "lng": 74.84583, "faa": ["LLY", "KVAY", "VAY"]},
{"city": "Manville", "airport": "Central Jersey Regional Airport", "state": "New Jersey", "lat": 40.52444, "lng": 74.59833, "faa": ["JVI", "47N"]},
{"city": "Linden", "airport": "Linden Airport", "state": "New Jersey", "lat": 40.6175, "lng": 74.24444, "faa": ["LDJ", "KLDJ", "LDJ"]},
{"city": "Lincoln Park", "airport": "Lincoln Park Airport", "state": "New Jersey", "lat": 40.9475, "lng": 74.31444, "faa": ["N07"]},
{"city": "Caldwell", "airport": "Essex County Airport", "state": "New Jersey", "lat": 40.87528, "lng": 74.28139, "faa": ["CDW", "KCDW", "CDW"]},
{"city": "Belmar", "airport": "Monmouth Executive Airport", "state": "New Jersey", "lat": 40.18667, "lng": 74.12444, "faa": ["BLM", "KBLM", "BLM"]},
{"city": "Las Cruces", "airport": "Las Cruces International Airport", "state": "New Mexico", "lat": 32.28944, "lng": 106.92194, "faa": ["LRU", "KLRU", "LRU"]},
{"city": "Jal", "airport": "Lea County-Jal Airport", "state": "New Mexico", "lat": 32.13111, "lng": 103.15472, "faa": ["E26"]},
{"city": "Gallup", "airport": "Gallup Municipal Airport", "state": "New Mexico", "lat": 35.51111, "lng": 108.78944, "faa": ["GUP", "KGUP", "GUP"]},
{"city": "Espa\u00f1ola", "airport": "Ohkay Owingeh Airport", "state": "New Mexico", "lat": 36.02611, "lng": 106.04528, "faa": ["ESO", "E14"]},
{"city": "Deming", "airport": "Deming Municipal Airport", "state": "New Mexico", "lat": 32.26222, "lng": 107.72056, "faa": ["DMN", "KDMN", "DMN"]},
{"city": "Crownpoint", "airport": "Crownpoint Airport", "state": "New Mexico", "lat": 35.71778, "lng": 108.20167, "faa": ["0E8"]},
{"city": "Conchas Dam", "airport": "Conchas Lake Airport", "state": "New Mexico", "lat": 35.36833, "lng": 104.18111, "faa": ["E89"]},
{"city": "Somerville", "airport": "Somerset Airport", "state": "New Jersey", "lat": 40.62611, "lng": 74.67028, "faa": ["George Walker Field", "KSMQ", "SMQ"]},
{"city": "Clayton", "airport": "Clayton Municipal Airpark", "state": "New Mexico", "lat": 36.44639, "lng": 103.14972, "faa": ["CAO", "KCAO", "CAO"]},
{"city": "Carrizozo", "airport": "Carrizozo Municipal Airport", "state": "New Mexico", "lat": 33.64889, "lng": 105.89556, "faa": ["F37"]},
{"city": "Artesia", "airport": "Artesia Municipal Airport", "state": "New Mexico", "lat": 32.8525, "lng": 104.46778, "faa": ["ATS", "KATS", "ATS"]},
{"city": "Fort Sumner", "airport": "Fort Sumner Municipal Airport", "state": "New Mexico", "lat": 34.48778, "lng": 104.21694, "faa": ["FSU", "KFSU", "FSU"]},
{"city": "Alamogordo", "airport": "Alamogordo-White Sands Regional Airport", "state": "New Mexico", "lat": 32.84, "lng": 105.99056, "faa": ["ALM", "KALM", "ALM"]},
{"city": "Albuquerque", "airport": "Double Eagle II Airport", "state": "New Mexico", "lat": 35.14528, "lng": 106.79528, "faa": ["KAEG", "AEG"]},
{"city": "Silver City", "airport": "Grant County Airport", "state": "New Mexico", "lat": 32.63667, "lng": 108.15639, "faa": ["SVC", "KSVC", "SVC"]},
{"city": "Hobbs", "airport": "Lea County Regional Airport", "state": "New Mexico", "lat": 32.6875, "lng": 103.21694, "faa": ["HOB", "KHOB"]},
{"city": "Clovis", "airport": "Clovis Municipal Airport", "state": "New Mexico", "lat": 34.42528, "lng": 103.07917, "faa": ["CVN", "KCVN", "CVN"]},
{"city": "Carlsbad", "airport": "Cavern City Air Terminal", "state": "New Mexico", "lat": 32.3375, "lng": 104.26333, "faa": ["CNM", "KCNM", "CNM"]},
{"city": "Santa Fe", "airport": "Santa Fe Municipal Airport", "state": "New Mexico", "lat": 35.61722, "lng": 106.08944, "faa": ["SAF", "KSAF", "SAF"]},
{"city": "Winnsboro", "airport": "Fairfield County Airport", "state": "South Carolina", "lat": 34.31556, "lng": 81.10889, "faa": ["KFDW", "FDW"]},
{"city": "Walterboro", "airport": "Lowcountry Regional Airport", "state": "South Carolina", "lat": 32.92111, "lng": 80.64056, "faa": ["RBW", "KRBW", "RBW"]},
{"city": "Union", "airport": "Union County Airport", "state": "South Carolina", "lat": 34.68694, "lng": 81.64111, "faa": ["35A"]},
{"city": "Sumter", "airport": "Sumter Airport", "state": "South Carolina", "lat": 33.995, "lng": 80.36139, "faa": ["SUM", "KSMS", "SMS"]},
{"city": "Summerville", "airport": "Summerville Airport", "state": "South Carolina", "lat": 33.06333, "lng": 80.27944, "faa": ["KDYB", "DYB"]},
{"city": "St. George", "airport": "St. George Airport", "state": "South Carolina", "lat": 33.19556, "lng": 80.50833, "faa": ["6J2"]},
{"city": "Spartanburg", "airport": "Spartanburg Downtown Memorial Airport", "state": "South Carolina", "lat": 34.9157, "lng": 81.9565, "faa": ["SPA", "KSPA", "SPA"]},
{"city": "Ridgeland", "airport": "Ridgeland Airport", "state": "South Carolina", "lat": 32.49333, "lng": 80.99167, "faa": ["Jasper County Airport", "3J1"]},
{"city": "Pickens", "airport": "Pickens County Airport", "state": "South Carolina", "lat": 34.81, "lng": 82.70278, "faa": ["LQK", "KLQK", "LQK"]},
{"city": "Orangeburg", "airport": "Orangeburg Municipal Airport", "state": "South Carolina", "lat": 33.45694, "lng": 80.85944, "faa": ["OGB", "KOGB", "OGB"]},
{"city": "North Myrtle Beach", "airport": "Grand Strand Airport", "state": "South Carolina", "lat": 33.81167, "lng": 78.72389, "faa": ["CRE", "KCRE", "CRE"]},
{"city": "Newberry", "airport": "Newberry County Airport", "state": "South Carolina", "lat": 34.30944, "lng": 81.64056, "faa": ["KEOE", "EOE"]},
{"city": "Mount Pleasant", "airport": "Mount Pleasant Regional Airport", "state": "South Carolina", "lat": 32.89778, "lng": 79.78278, "faa": ["Faison Field", "KLRO", "LRO"]},
{"city": "Moncks Corner", "airport": "Berkeley County Airport", "state": "South Carolina", "lat": 33.18556, "lng": 80.03611, "faa": ["KMKS", "MKS"]},
{"city": "Marion", "airport": "Marion County Airport", "state": "South Carolina", "lat": 34.18111, "lng": 79.33472, "faa": ["KMAO", "MAO"]},
{"city": "Manning", "airport": "Santee Cooper Regional Airport", "state": "South Carolina", "lat": 33.58722, "lng": 80.20861, "faa": ["KMNI", "MNI"]},
{"city": "Laurens", "airport": "Laurens County Airport", "state": "South Carolina", "lat": 34.50694, "lng": 81.94722, "faa": ["KLUX", "LUX"]},
{"city": "Lancaster", "airport": "Lancaster County Airport", "state": "South Carolina", "lat": 34.72278, "lng": 80.85472, "faa": ["McWhirter Field", "KLKR", "LKR"]},
{"city": "Kingstree", "airport": "Williamsburg Regional Airport", "state": "South Carolina", "lat": 33.71722, "lng": 79.85694, "faa": ["KCKI", "CKI"]},
{"city": "Hartsville", "airport": "Hartsville Regional Airport", "state": "South Carolina", "lat": 34.40306, "lng": 80.11917, "faa": ["HVS", "KHVS", "HVS"]},
{"city": "Poteau", "airport": "Robert S. Kerr Airport", "state": "Oklahoma", "lat": 35.02167, "lng": 94.62111, "faa": ["RKR", "KRKR", "RKR"]},
{"city": "Ponca City", "airport": "Ponca City Regional Airport", "state": "Oklahoma", "lat": 36.73194, "lng": 97.09972, "faa": ["PNC", "KPNC", "PNC"]},
{"city": "Perry", "airport": "Perry Municipal Airport", "state": "Oklahoma", "lat": 36.38556, "lng": 97.27722, "faa": ["F22"]},
{"city": "Pauls Valley", "airport": "Pauls Valley Municipal Airport", "state": "Oklahoma", "lat": 34.70944, "lng": 97.22333, "faa": ["KPVJ", "PVJ"]},
{"city": "Oklahoma City", "airport": "Clarence E. Page Municipal Airport", "state": "Oklahoma", "lat": 35.48806, "lng": 97.82361, "faa": ["KRCE", "RCE"]},
{"city": "Okmulgee", "airport": "Okmulgee Regional Airport", "state": "Oklahoma", "lat": 35.66806, "lng": 95.94861, "faa": ["OKM", "KOKM", "OKM"]},
{"city": "Muskogee", "airport": "Davis Field", "state": "Oklahoma", "lat": 35.65778, "lng": 95.36167, "faa": ["MKO", "KMKO", "MKO"]},
{"city": "Mooreland", "airport": "Mooreland Municipal Airport", "state": "Oklahoma", "lat": 36.48472, "lng": 99.19417, "faa": ["KMDF", "MDF"]},
{"city": "Miami", "airport": "Miami Municipal Airport", "state": "Oklahoma", "lat": 36.90917, "lng": 94.8875, "faa": ["MIO", "KMIO", "MIO"]},
{"city": "Medford", "airport": "Medford Municipal Airport", "state": "Oklahoma", "lat": 36.79056, "lng": 97.74889, "faa": ["O53"]},
{"city": "McAlester", "airport": "McAlester Regional Airport", "state": "Oklahoma", "lat": 34.8825, "lng": 95.78333, "faa": ["MLC", "KMLC", "MLC"]},
{"city": "Mangum", "airport": "Scott Field", "state": "Oklahoma", "lat": 34.8925, "lng": 99.52833, "faa": ["none", "none", "2K4"]},
{"city": "Ketchum", "airport": "South Grand Lake Regional Airport", "state": "Oklahoma", "lat": 36.54167, "lng": 95.02111, "faa": ["1K8"]},
{"city": "Hugo", "airport": "Stan Stamper Municipal Airport", "state": "Oklahoma", "lat": 34.03472, "lng": 95.54194, "faa": ["HUJ", "KHHW", "HHW"]},
{"city": "Hooker", "airport": "Hooker Municipal Airport", "state": "Oklahoma", "lat": 36.857083, "lng": 101.2270917, "faa": ["O45"]},
{"city": "Gates", "airport": "Davis Airport", "state": "Oregon", "lat": 44.74583, "lng": 122.42139, "faa": ["6S4"]},
{"city": "Florence", "airport": "Lake Woahink Seaplane Base", "state": "Oregon", "lat": 43.90417, "lng": 124.11472, "faa": ["1O0"]},
{"city": "Estacada", "airport": "Valley View Airport", "state": "Oregon", "lat": 45.308176389, "lng": 122.3186972, "faa": ["5S9"]},
{"city": "Enterprise", "airport": "Enterprise Municipal Airport", "state": "Oregon", "lat": 45.425, "lng": 117.265, "faa": ["8S4"]},
{"city": "Denmark", "airport": "Cape Blanco State Airport", "state": "Oregon", "lat": 42.857886111, "lng": 124.5176083, "faa": ["- FAA: 5S6"]},
{"city": "Culver", "airport": "Lake Billy Chinook Airport", "state": "Oregon", "lat": 44.51917, "lng": 121.32056, "faa": ["5S5"]},
{"city": "Crescent Lake", "airport": "Crescent Lake State Airport", "state": "Oregon", "lat": 43.532624167, "lng": 121.9500306, "faa": ["- FAA: 5S2"]},
{"city": "Cornelius", "airport": "Skyport Airport", "state": "Oregon", "lat": 45.5825, "lng": 123.05278, "faa": ["4S4"]},
{"city": "Clearwater", "airport": "Toketee State Airport", "state": "Oregon", "lat": 43.223455556, "lng": 122.420875, "faa": ["3S6"]},
{"city": "Cascade Locks", "airport": "Cascade Locks State Airport", "state": "Oregon", "lat": 45.67694, "lng": 121.87889, "faa": ["CZK", "KCZK", "CZK"]},
{"city": "Beaver Marsh", "airport": "Beaver Marsh Airport", "state": "Oregon", "lat": 43.1275, "lng": 121.80861, "faa": ["2S2"]},
{"city": "Arlington", "airport": "Arlington Municipal Airport", "state": "Oregon", "lat": 45.71639, "lng": 120.16778, "faa": ["none", "none", "1S8"]},
{"city": "Alkali Lake", "airport": "Alkali Lake State Airport", "state": "Oregon", "lat": 43.087372778, "lng": 119.9760722, "faa": ["- FAA: R03"]},
{"city": "Wasco", "airport": "Wasco State Airport", "state": "Oregon", "lat": 45.589444444, "lng": 120.6741667, "faa": ["FAA: 35S"]},
{"city": "Tillamook", "airport": "Tillamook Airport", "state": "Oregon", "lat": 45.41833, "lng": 123.81444, "faa": ["KTMK", "TMK"]},
{"city": "The Dalles", "airport": "Columbia Gorge Regional Airport", "state": "Oregon", "lat": 45.61861, "lng": 121.16722, "faa": ["The Dalles Municipal Airport", "DLS", "KDLS", "DLS"]},
{"city": "Sunriver", "airport": "Sunriver Airport", "state": "Oregon", "lat": 43.87639, "lng": 121.45306, "faa": ["SUO", "S21"]},
{"city": "Seaside", "airport": "Seaside Municipal Airport", "state": "Oregon", "lat": 46.014995833, "lng": 123.9076583, "faa": ["56S"]},
{"city": "Salem", "airport": "Salem Municipal Airport", "state": "Oregon", "lat": 44.90944, "lng": 123.0025, "faa": ["Salem Municipal Airport", "\n", "SLE", "KSLE", "SLE"]},
{"city": "Scappoose", "airport": "Scappoose Industrial Airpark", "state": "Oregon", "lat": 45.77111, "lng": 122.86194, "faa": ["KSPB", "SPB"]},
{"city": "Bethel", "airport": "Grimes Airport", "state": "Pennsylvania", "lat": 40.48472, "lng": 76.26361, "faa": ["8N1"]},
{"city": "Bally", "airport": "Butter Valley Golf Port", "state": "Pennsylvania", "lat": 40.39806, "lng": 75.56444, "faa": ["7N8"]},
{"city": "Zelienople", "airport": "Zelienople Municipal Airport", "state": "Pennsylvania", "lat": 40.80194, "lng": 80.16083, "faa": ["KPJC", "PJC"]},
{"city": "Wilkes-Barre", "airport": "Wilkes-Barre Wyoming Valley Airport", "state": "Pennsylvania", "lat": 41.29722, "lng": 75.85222, "faa": ["WBW", "KWBW", "WBW"]},
{"city": "Towanda", "airport": "Bradford County Airport", "state": "Pennsylvania", "lat": 41.74, "lng": 76.44722, "faa": ["none", "none", "N27"]},
{"city": "Titusville", "airport": "Titusville Airport", "state": "Pennsylvania", "lat": 41.60889, "lng": 79.74139, "faa": ["6G1"]},
{"city": "Washington", "airport": "Washington County Airport", "state": "Pennsylvania", "lat": 40.13639, "lng": 80.29028, "faa": ["WSG", "KAFJ", "AFJ"]},
{"city": "St. Marys", "airport": "St. Marys Municipal Airport", "state": "Pennsylvania", "lat": 41.4125, "lng": 78.5025, "faa": ["STQ", "KOYM", "OYM"]},
{"city": "Somerset", "airport": "Somerset County Airport", "state": "Pennsylvania", "lat": 40.03889, "lng": 79.015, "faa": ["2G9"]},
{"city": "Selinsgrove", "airport": "Penn Valley Airport", "state": "Pennsylvania", "lat": 40.82111, "lng": 76.86417, "faa": ["SEG", "KSEG", "SEG"]},
{"city": "Reedsville", "airport": "Mifflin County Airport", "state": "Pennsylvania", "lat": 40.6775, "lng": 77.62694, "faa": ["RED", "KRVL", "RVL"]},
{"city": "Quakertown", "airport": "Quakertown Airport", "state": "Pennsylvania", "lat": 40.43639, "lng": 75.38028, "faa": ["UKT", "KUKT", "UKT"]},
{"city": "Reading", "airport": "Reading Regional Airport", "state": "Pennsylvania", "lat": 40.37861, "lng": 75.96528, "faa": ["Carl A. Spaatz Field", "\n", "RDG", "KRDG", "RDG"]},
{"city": "Napoleon", "airport": "Henry County Airport", "state": "Ohio", "lat": 41.37417, "lng": 84.06778, "faa": ["7W5"]},
{"city": "Mount Vernon", "airport": "Knox County Airport", "state": "Ohio", "lat": 40.32889, "lng": 82.52611, "faa": ["4I3"]},
{"city": "Middletown", "airport": "Middletown Regional Airport", "state": "Ohio", "lat": 39.53167, "lng": 84.39639, "faa": ["Hook Field", "MWO", "KMWO", "MWO"]},
{"city": "Middlefield", "airport": "Geauga County Airport", "state": "Ohio", "lat": 41.45083, "lng": 81.07083, "faa": ["7G8"]},
{"city": "Middle Bass Island", "airport": "Middle Bass Island Airport", "state": "Ohio", "lat": 41.685, "lng": 82.805, "faa": ["none", "none", "3T7"]},
{"city": "Marysville", "airport": "Union County Airport", "state": "Ohio", "lat": 40.22472, "lng": 83.35167, "faa": ["KMRT", "MRT"]},
{"city": "Marion", "airport": "Marion Municipal Airport", "state": "Ohio", "lat": 40.61611, "lng": 83.06333, "faa": ["MNN", "KMNN", "MNN"]},
{"city": "Mansfield", "airport": "Mansfield Lahm Regional Airport", "state": "Ohio", "lat": 40.82139, "lng": 82.51667, "faa": ["MFD", "KMFD", "MFD"]},
{"city": "London", "airport": "Madison County Airport", "state": "Ohio", "lat": 39.93278, "lng": 83.46194, "faa": ["KUYF", "UYF"]},
{"city": "Lima", "airport": "Lima Allen County Airport", "state": "Ohio", "lat": 40.70833, "lng": 84.0275, "faa": ["AOH", "KAOH", "AOH"]},
{"city": "Lebanon", "airport": "Lebanon-Warren County Airport", "state": "Ohio", "lat": 39.46222, "lng": 84.25194, "faa": ["none", "none", "I68"]},
{"city": "Lancaster", "airport": "Fairfield County Airport", "state": "Ohio", "lat": 39.75556, "lng": 82.65722, "faa": ["KLHQ", "LHQ"]},
{"city": "Kent", "airport": "Kent State University Airport", "state": "Ohio", "lat": 41.15139, "lng": 81.415, "faa": ["none", "none", "1G3"]},
{"city": "Hillsboro", "airport": "Highland County Airport", "state": "Ohio", "lat": 39.18861, "lng": 83.53861, "faa": ["none", "KHOC", "HOC"]},
{"city": "Rosebud", "airport": "Rosebud Sioux Tribal Airport", "state": "South Dakota", "lat": 43.25833, "lng": 100.85944, "faa": ["KSUO", "SUO"]},
{"city": "North Sioux City", "airport": "Graham Field", "state": "South Dakota", "lat": 42.54028, "lng": 96.485, "faa": ["7K7"]},
{"city": "Arlington", "airport": "Arlington Municipal Airport", "state": "South Dakota", "lat": 44.39444, "lng": 97.12306, "faa": ["3A9"]},
{"city": "Yankton", "airport": "Chan Gurney Municipal Airport", "state": "South Dakota", "lat": 42.91667, "lng": 97.38583, "faa": ["YKN", "KYKN", "YKN"]},
{"city": "Winner", "airport": "Winner Regional Airport", "state": "South Dakota", "lat": 43.39028, "lng": 99.84222, "faa": ["Bob Wiley Field", "KICR", "ICR"]},
{"city": "Tea", "airport": "Marv Skie-Lincoln County Airport", "state": "South Dakota", "lat": 43.455, "lng": 96.80139, "faa": ["Y14"]},
{"city": "Sturgis", "airport": "Sturgis Municipal Airport", "state": "South Dakota", "lat": 44.41806, "lng": 103.37556, "faa": ["49B"]},
{"city": "Springfield", "airport": "Springfield Municipal Airport", "state": "South Dakota", "lat": 42.88, "lng": 97.90111, "faa": ["Y03"]},
{"city": "Wadesboro", "airport": "Anson County Airport", "state": "North Carolina", "lat": 35.02056, "lng": 80.07722, "faa": ["KAFP", "AFP"]},
{"city": "Sylva", "airport": "Jackson County Airport", "state": "North Carolina", "lat": 35.3175, "lng": 83.21, "faa": ["24A"]},
{"city": "Star", "airport": "Montgomery County Airport", "state": "North Carolina", "lat": 35.38472, "lng": 79.79028, "faa": ["43A"]},
{"city": "Southport", "airport": "Cape Fear Regional Jetport", "state": "North Carolina", "lat": 33.93083, "lng": 78.07333, "faa": ["KSUT", "SUT"]},
{"city": "Siler City", "airport": "Siler City Municipal Airport", "state": "North Carolina", "lat": 35.70417, "lng": 79.50417, "faa": ["5W8"]},
{"city": "Shelby", "airport": "Shelby-Cleveland County Regional Airport", "state": "North Carolina", "lat": 35.25583, "lng": 81.60083, "faa": ["KEHO", "EHO"]},
{"city": "Salisbury", "airport": "Rowan County Airport", "state": "North Carolina", "lat": 35.64583, "lng": 80.52028, "faa": ["SRW", "KRUQ", "RUQ"]},
{"city": "Roxboro", "airport": "Person County Airport", "state": "North Carolina", "lat": 36.28472, "lng": 78.98472, "faa": ["KTDF", "TDF"]},
{"city": "Rocky Mount", "airport": "Rocky Mount-Wilson Regional Airport", "state": "North Carolina", "lat": 35.85639, "lng": 77.89194, "faa": ["RWI", "KRWI", "RWI"]},
{"city": "Rockingham", "airport": "Richmond County Airport", "state": "North Carolina", "lat": 34.89139, "lng": 79.75972, "faa": ["KRCZ", "RCZ"]},
{"city": "Roanoke Rapids", "airport": "Halifax-Northampton Regional Airport", "state": "North Carolina", "lat": 36.32972, "lng": 77.63528, "faa": ["KIXA", "IXA"]},
{"city": "Reidsville", "airport": "Rockingham County NC Shiloh Airport", "state": "North Carolina", "lat": 36.43722, "lng": 79.85111, "faa": ["KSIF", "SIF"]},
{"city": "Plymouth", "airport": "Plymouth Municipal Airport", "state": "North Carolina", "lat": 35.81083, "lng": 76.75833, "faa": ["KPMZ", "PMZ"]},
{"city": "Pinehurst", "airport": "Moore County Airport", "state": "North Carolina", "lat": 35.23722, "lng": 79.39111, "faa": ["SOP", "KSOP", "SOP"]},
{"city": "Oxford", "airport": "Henderson-Oxford Airport", "state": "North Carolina", "lat": 36.36167, "lng": 78.52917, "faa": ["KHNZ", "HNZ"]},
{"city": "Ocracoke", "airport": "Ocracoke Island Airport", "state": "North Carolina", "lat": 35.10111, "lng": 75.96583, "faa": ["W95"]},
{"city": "North Wilkesboro", "airport": "Wilkes County Airport", "state": "North Carolina", "lat": 36.22278, "lng": 81.09833, "faa": ["IKB", "KUKF", "UKF"]},
{"city": "Mount Olive", "airport": "Mount Olive Municipal Airport", "state": "North Carolina", "lat": 35.22222, "lng": 78.03889, "faa": ["W40"]},
{"city": "Rock Springs", "airport": "Rock Springs \u2013 Sweetwater County Airport", "state": "Wyoming", "lat": 41.59417, "lng": 109.06528, "faa": ["RKS", "KRKS", "RKS"]},
{"city": "Riverton", "airport": "Riverton Regional Airport", "state": "Wyoming", "lat": 43.06417, "lng": 108.45972, "faa": ["RIW", "KRIW", "RIW"]},
{"city": "Laramie", "airport": "Laramie Regional Airport", "state": "Wyoming", "lat": 41.31194, "lng": 105.675, "faa": ["LAR", "KLAR", "LAR"]},
{"city": "Jackson", "airport": "Jackson Hole Airport", "state": "Wyoming", "lat": 43.60722, "lng": 110.73778, "faa": ["JAC", "KJAC", "JAC"]},
{"city": "Gillette", "airport": "Gillette-Campbell County Airport", "state": "Wyoming", "lat": 44.34889, "lng": 105.53944, "faa": ["GCC", "KGCC", "GCC"]},
{"city": "Cody", "airport": "Yellowstone Regional Airport", "state": "Wyoming", "lat": 44.52028, "lng": 109.02389, "faa": ["COD", "KCOD", "COD"]},
{"city": "Cheyenne", "airport": "Cheyenne Regional Airport", "state": "Wyoming", "lat": 41.15556, "lng": 104.81056, "faa": ["Jerry Olson Field", "CYS", "KCYS", "CYS"]},
{"city": "Casper", "airport": "Casper/Natrona County International Airport", "state": "Wyoming", "lat": 42.90806, "lng": 106.46444, "faa": ["CPR", "KCPR", "CPR"]},
{"city": "Lincoln", "airport": "Lincoln Airport", "state": "Nebraska", "lat": 40.85111, "lng": 96.75917, "faa": ["LNK", "KLNK", "LNK"]},
{"city": "Omaha", "airport": "Eppley Airfield", "state": "Nebraska", "lat": 41.3012, "lng": 95.8954, "faa": ["OMA", "KOMA", "OMA"]},
{"city": "Ely", "airport": "Ely Airport", "state": "Nevada", "lat": 39.29972, "lng": 114.84194, "faa": ["ELY", "KELY", "ELY"]},
{"city": "Grand Island", "airport": "Central Nebraska Regional Airport", "state": "Nebraska", "lat": 40.9675, "lng": 98.30972, "faa": ["GRI", "KGRI", "GRI"]},
{"city": "Las Vegas", "airport": "North Las Vegas Airport", "state": "Nevada", "lat": 36.21056, "lng": 115.19444, "faa": ["VGT", "KVGT", "VGT"]},
{"city": "Reno", "airport": "Reno/Tahoe International Airport", "state": "Nevada", "lat": 39.49917, "lng": 119.76806, "faa": ["RNO", "KRNO", "RNO"]},
{"city": "Elko", "airport": "Elko Regional Airport", "state": "Nevada", "lat": 40.825, "lng": 115.79167, "faa": ["J.C. Harris Field", "EKO", "KEKO", "EKO"]},
{"city": "Boulder City", "airport": "Boulder City Municipal Airport", "state": "Nevada", "lat": 35.94722, "lng": 114.86028, "faa": ["BLD", "KBVU", "BVU"]},
{"city": "Plymouth", "airport": "Plymouth Municipal Airport", "state": "New Hampshire", "lat": 43.77917, "lng": 71.75361, "faa": ["1P1"]},
{"city": "Las Vegas", "airport": "McCarran International Airport", "state": "Nevada", "lat": 36.08, "lng": 115.15222, "faa": ["LAS", "KLAS", "LAS", "72386"]},
{"city": "Newport", "airport": "Parlin Field", "state": "New Hampshire", "lat": 43.3881306, "lng": 72.1892556, "faa": ["NWH", "2B3"]},
{"city": "Keene", "airport": "Dillant-Hopkins Airport", "state": "New Hampshire", "lat": 42.89833, "lng": 72.27083, "faa": ["EEN", "KEEN", "EEN"]},
{"city": "Laconia", "airport": "Laconia Municipal Airport", "state": "New Hampshire", "lat": 43.57278, "lng": 71.41889, "faa": ["LCI", "KLCI", "LCI"]},
{"city": "Jaffrey", "airport": "Jaffrey Airport - Silver Ranch Airpark", "state": "New Hampshire", "lat": 42.80513417, "lng": 72.00302194, "faa": ["AFN", "KAFN", "AFN"]},
{"city": "Albany", "airport": "Albany International Airport", "state": "New York", "lat": 42.74917, "lng": 73.80194, "faa": ["ALB", "KALB", "ALB"]},
{"city": "Haverhill", "airport": "Dean Memorial Airport", "state": "New Hampshire", "lat": 44.0801722, "lng": 72.0077611, "faa": ["5B9"]},
{"city": "Concord", "airport": "Concord Municipal Airport", "state": "New Hampshire", "lat": 43.20278, "lng": 71.50222, "faa": ["CON", "KCON", "CON"]},
{"city": "Claremont", "airport": "Claremont Municipal Airport", "state": "New Hampshire", "lat": 43.37056, "lng": 72.36861, "faa": ["CNH", "KCNH", "CNH"]},
{"city": "Nashua", "airport": "Nashua Airport", "state": "New Hampshire", "lat": 42.78167, "lng": 71.51472, "faa": ["Boire Field", "ASH", "KASH", "ASH"]},
{"city": "Berlin", "airport": "Berlin Regional Airport", "state": "New Hampshire", "lat": 44.57528, "lng": 71.17583, "faa": ["BML", "KBML", "BML"]},
{"city": "Morristown", "airport": "Morristown Municipal Airport", "state": "New Jersey", "lat": 40.79944, "lng": 74.415, "faa": ["MMU", "KMMU", "MMU"]},
{"city": "Portsmouth", "airport": "Portsmouth International Airport at Pease", "state": "New Hampshire", "lat": 43.07806, "lng": 70.82333, "faa": ["PSM", "KPSM", "PSM"]},
{"city": "Teterboro", "airport": "Teterboro Airport", "state": "New Jersey", "lat": 40.85, "lng": 74.06083, "faa": ["TEB", "KTEB", "TEB"]},
{"city": "Lebanon", "airport": "Lebanon Municipal Airport", "state": "New Hampshire", "lat": 43.62611, "lng": 72.30417, "faa": ["LEB", "KLEB", "LEB"]},
{"city": "Manchester", "airport": "Manchester-Boston Regional Airport", "state": "New Hampshire", "lat": 42.9325, "lng": 71.43556, "faa": ["MHT", "KMHT", "MHT"]},
{"city": "Trenton", "airport": "Trenton Mercer Airport", "state": "New Jersey", "lat": 40.27667, "lng": 74.81333, "faa": ["TTN", "KTTN", "TTN"]},
{"city": "Farmington", "airport": "Four Corners Regional Airport", "state": "New Mexico", "lat": 36.74111, "lng": 108.23, "faa": ["FMN", "KFMN", "FMN"]},
{"city": "Roswell", "airport": "Roswell International Air Center", "state": "New Mexico", "lat": 33.301556, "lng": 104.53056, "faa": ["ROW", "KROW", "ROW"]},
{"city": "Atlantic City", "airport": "Atlantic City International Airport", "state": "New Jersey", "lat": 39.4575, "lng": 74.57722, "faa": ["ACY", "KACY", "ACY"]},
{"city": "Newark", "airport": "Newark Liberty International Airport", "state": "New Jersey", "lat": 40.6925, "lng": 74.16861, "faa": ["EWR", "KEWR", "EWR", "72502"]},
{"city": "Albuquerque", "airport": "Albuquerque International Sunport", "state": "New Mexico", "lat": 35.039333, "lng": 106.610778, "faa": ["Albuquerque", "ABQ", "KABQ", "ABQ"]},
{"city": "Greenwood", "airport": "Greenwood County Airport", "state": "South Carolina", "lat": 34.24861, "lng": 82.15917, "faa": ["GRD", "KGRD", "GRD"]},
{"city": "Greenville", "airport": "Donaldson Center Airport", "state": "South Carolina", "lat": 34.75833, "lng": 82.37639, "faa": ["GDC", "KGYH", "GYH"]},
{"city": "Greenville", "airport": "Greenville Downtown Airport", "state": "South Carolina", "lat": 34.84806, "lng": 82.35, "faa": ["GMU", "KGMU", "GMU"]},
{"city": "Dillon", "airport": "Dillon County Airport", "state": "South Carolina", "lat": 34.44917, "lng": 79.36861, "faa": ["DLL", "KDLC", "DLC"]},
{"city": "Georgetown", "airport": "Georgetown County Airport", "state": "South Carolina", "lat": 33.31139, "lng": 79.32028, "faa": ["GGE", "KGGE", "GGE"]},
{"city": "Darlington", "airport": "Darlington County Jetport", "state": "South Carolina", "lat": 34.44944, "lng": 79.89, "faa": ["KUDG", "UDG"]},
{"city": "Conway", "airport": "Conway-Horry County Airport", "state": "South Carolina", "lat": 33.82833, "lng": 79.12194, "faa": ["KHYW", "HYW"]},
{"city": "Clemson", "airport": "Oconee County Regional Airport", "state": "South Carolina", "lat": 34.671917, "lng": 82.886806, "faa": ["CEU", "KCEU", "CEU"]},
{"city": "Chester", "airport": "Chester Catawba Regional Airport", "state": "South Carolina", "lat": 34.78944, "lng": 81.19583, "faa": ["KDCM", "DCM"]},
{"city": "Cheraw", "airport": "Cheraw Municipal Airport", "state": "South Carolina", "lat": 34.71278, "lng": 79.95694, "faa": ["Lynch Bellinger Field", "HCW", "KCQW", "CQW"]},
{"city": "Charleston", "airport": "Charleston Executive Airport", "state": "South Carolina", "lat": 32.70083, "lng": 80.00278, "faa": ["KJZI", "JZI"]},
{"city": "Camden", "airport": "Woodward Field", "state": "South Carolina", "lat": 34.28361, "lng": 80.565, "faa": ["Kershaw County Airport", "CDN", "KCDN", "CDN"]},
{"city": "Bishopville", "airport": "Lee County Airport", "state": "South Carolina", "lat": 34.24444, "lng": 80.23611, "faa": ["Butters Field", "52J"]},
{"city": "Andrews", "airport": "Robert F. Swinnie Airport", "state": "South Carolina", "lat": 33.45167, "lng": 79.52611, "faa": ["ADR", "KPHH", "PHH"]},
{"city": "Bennettsville", "airport": "Marlboro County Jetport", "state": "South Carolina", "lat": 34.62167, "lng": 79.73444, "faa": ["H.E. Avent Field", "BTN", "KBBP", "BBP"]},
{"city": "Beaufort", "airport": "Beaufort County Airport", "state": "South Carolina", "lat": 32.41222, "lng": 80.63444, "faa": ["BFT", "KARW", "ARW"]},
{"city": "Barnwell", "airport": "Barnwell Regional Airport", "state": "South Carolina", "lat": 33.25806, "lng": 81.38806, "faa": ["BNL", "KBNL", "BNL"]},
{"city": "Anderson", "airport": "Anderson Regional Airport", "state": "South Carolina", "lat": 34.494944, "lng": 82.709028, "faa": ["AND", "KAND"]},
{"city": "Aiken", "airport": "Aiken Municipal Airport", "state": "South Carolina", "lat": 33.64944, "lng": 81.685, "faa": ["AIK", "KAIK", "AIK"]},